{
"type": "FeatureCollection",
"name": "pat",
"crs": { "type": "name", "properties": { "name": "urn:ogc:def:crs:OGC:1.3:CRS84" } },
"features": [
{ "type": "Feature", "properties": { "OBJECTID": 1, "Nombre_com": "VENTANA EL BUEN SABOR", "Cantidad_l": 1.0, "Tipo": "Comercial", "Patente_co": "Comercio", "Licencia": "N/A", "Número_de": 3534, "FINCA": "0014915", "IDENTIFICA": "60101001491500", "PLANO": "605386001984" }, "geometry": { "type": "Point", "coordinates": [ -84.848073746006548, 9.977412853120711 ] } },
{ "type": "Feature", "properties": { "OBJECTID": 2, "Nombre_com": "CABINAS FRANK", "Cantidad_l": 1.0, "Tipo": "Comercial", "Patente_co": "Comercio", "Licencia": "N/A", "Número_de": 1765, "FINCA": "0007721", "IDENTIFICA": "60101000772100", "PLANO": "603871751997" }, "geometry": { "type": "Point", "coordinates": [ -84.847790421790478, 9.977290611872263 ] } },
{ "type": "Feature", "properties": { "OBJECTID": 3, "Nombre_com": "MINI SUPER ISAMAR", "Cantidad_l": 1.0, "Tipo": "Desocupado", "Patente_co": "Comercio", "Licencia": "D1", "Número_de": 4294, "FINCA": "0023104", "IDENTIFICA": "60101002310400", "PLANO": "600164681975" }, "geometry": { "type": "Point", "coordinates": [ -84.847107902907339, 9.976975790700237 ] } },
{ "type": "Feature", "properties": { "OBJECTID": 4, "Nombre_com": "TALLER RAMPA DEL PACÍFICO", "Cantidad_l": 2.0, "Tipo": "Comercial", "Patente_co": "Comercio", "Licencia": "N/A", "Número_de": 2856, "FINCA": "0ZM0002", "IDENTIFICA": "601010ZM000200", "PLANO": "606050472000" }, "geometry": { "type": "Point", "coordinates": [ -84.84789091383459, 9.977711667259712 ] } },
{ "type": "Feature", "properties": { "OBJECTID": 5, "Nombre_com": "MINI SUPER MAR Y MAR", "Cantidad_l": 2.0, "Tipo": "Ambas", "Patente_co": "Comercio", "Licencia": "A", "Número_de": 3626, "FINCA": "0ZM0002", "IDENTIFICA": "601010ZM000200", "PLANO": "606050472000" }, "geometry": { "type": "Point", "coordinates": [ -84.848084597226318, 9.977619367140107 ] } },
{ "type": "Feature", "properties": { "OBJECTID": 6, "Nombre_com": "RESTAURANTE MAR ABIERTO", "Cantidad_l": 1.0, "Tipo": "Ambas", "Patente_co": "Comercio", "Licencia": "C", "Número_de": 3334, "FINCA": "0ZM0002", "IDENTIFICA": "601010ZM000200", "PLANO": "606050472000" }, "geometry": { "type": "Point", "coordinates": [ -84.848089341150114, 9.977716416579426 ] } },
{ "type": "Feature", "properties": { "OBJECTID": 7, "Nombre_com": "CABINAS ALLISON", "Cantidad_l": 5.0, "Tipo": "Comercial", "Patente_co": "Comercio", "Licencia": "N/A", "Número_de": 2933, "FINCA": "0007756", "IDENTIFICA": "60101000775600", "PLANO": "606333052000" }, "geometry": { "type": "Point", "coordinates": [ -84.847161801076197, 9.977349072301877 ] } },
{ "type": "Feature", "properties": { "OBJECTID": 8, "Nombre_com": "HIELO MAR", "Cantidad_l": 1.0, "Tipo": "Comercial", "Patente_co": "Comercio", "Licencia": "N/A", "Número_de": 3257, "FINCA": "0053753", "IDENTIFICA": "60101005375300", "PLANO": "606153711985" }, "geometry": { "type": "Point", "coordinates": [ -84.846850183289291, 9.977790307576697 ] } },
{ "type": "Feature", "properties": { "OBJECTID": 9, "Nombre_com": "ISLA COCOS", "Cantidad_l": 3.0, "Tipo": "Ambas", "Patente_co": "Comercio", "Licencia": "C", "Número_de": 2947, "FINCA": "0176862", "IDENTIFICA": "60101017686200", "PLANO": "607872632002" }, "geometry": { "type": "Point", "coordinates": [ -84.850150571091945, 9.977214530126503 ] } },
{ "type": "Feature", "properties": { "OBJECTID": 10, "Nombre_com": "SODA EL FERRY", "Cantidad_l": 2.0, "Tipo": "Comercial", "Patente_co": "Comercio", "Licencia": "N/A", "Número_de": 4366, "FINCA": "0026677", "IDENTIFICA": "60101002667700", "PLANO": "609131282004" }, "geometry": { "type": "Point", "coordinates": [ -84.848272509668561, 9.977271362783199 ] } },
{ "type": "Feature", "properties": { "OBJECTID": 11, "Nombre_com": "MINI SÚPER MILO", "Cantidad_l": 1.0, "Tipo": "Comercial", "Patente_co": "Comercio", "Licencia": "N/A", "Número_de": 2494, "FINCA": "0013505", "IDENTIFICA": "60101001350500", "PLANO": "606127681985" }, "geometry": { "type": "Point", "coordinates": [ -84.84868292877411, 9.976869854160498 ] } },
{ "type": "Feature", "properties": { "OBJECTID": 12, "Nombre_com": "HOTEL LA PUNTA", "Cantidad_l": 1.0, "Tipo": "Ambas", "Patente_co": "Servicio", "Licencia": "E1a", "Número_de": 3818, "FINCA": "0174660", "IDENTIFICA": "60101017466000", "PLANO": "601514251993" }, "geometry": { "type": "Point", "coordinates": [ -84.849580872159493, 9.976821315951042 ] } },
{ "type": "Feature", "properties": { "OBJECTID": 13, "Nombre_com": "BAR RESTAURANTE MANGLAMAR", "Cantidad_l": 1.0, "Tipo": "Ambas", "Patente_co": "Servicio", "Licencia": "C", "Número_de": 494, "FINCA": "0180507", "IDENTIFICA": "60101018050700", "PLANO": "614734802011" }, "geometry": { "type": "Point", "coordinates": [ -84.849743797837959, 9.975907450068803 ] } },
{ "type": "Feature", "properties": { "OBJECTID": 14, "Nombre_com": "HOTEL YADRAN BEACH RESORT Y CASINO", "Cantidad_l": 1.0, "Tipo": "Ambas", "Patente_co": "Servicio", "Licencia": "D2", "Número_de": 1683, "FINCA": "0014969", "IDENTIFICA": "60101001496900", "PLANO": "606172591986" }, "geometry": { "type": "Point", "coordinates": [ -84.849590287161959, 9.975615620064843 ] } },
{ "type": "Feature", "properties": { "OBJECTID": 15, "Nombre_com": "PULPERIA ESTRELLA DEL NIÑO", "Cantidad_l": 1.0, "Tipo": "Comercial", "Patente_co": "Comercio", "Licencia": "N/A", "Número_de": 3530, "FINCA": "0017441", "IDENTIFICA": "60101001744100", "PLANO": "616915862013" }, "geometry": { "type": "Point", "coordinates": [ -84.84803222970362, 9.975789988717054 ] } },
{ "type": "Feature", "properties": { "OBJECTID": 16, "Nombre_com": "HOTEL LAS BRISAS", "Cantidad_l": 1.0, "Tipo": "Comercial", "Patente_co": "Servicio", "Licencia": "D2", "Número_de": 1678, "FINCA": "0012685", "IDENTIFICA": "60101001268500", "PLANO": "600301071977" }, "geometry": { "type": "Point", "coordinates": [ -84.847455311013732, 9.974927168354213 ] } },
{ "type": "Feature", "properties": { "OBJECTID": 17, "Nombre_com": "HOTEL ALAMAR", "Cantidad_l": 1.0, "Tipo": "Comercial", "Patente_co": "Servicio", "Licencia": "D2", "Número_de": 1054, "FINCA": "0020694", "IDENTIFICA": "60101002069400", "PLANO": "600869241992" }, "geometry": { "type": "Point", "coordinates": [ -84.847294214556314, 9.974942205918126 ] } },
{ "type": "Feature", "properties": { "OBJECTID": 18, "Nombre_com": "UMCA", "Cantidad_l": 1.0, "Tipo": "Comercial", "Patente_co": "Servicio", "Licencia": "N/A", "Número_de": 3711, "FINCA": "0050989", "IDENTIFICA": "601010050989A0", "PLANO": "606334091986" }, "geometry": { "type": "Point", "coordinates": [ -84.846609221638232, 9.97480426070814 ] } },
{ "type": "Feature", "properties": { "OBJECTID": 19, "Nombre_com": "SODA Y CAFETERÍA FABRI", "Cantidad_l": 2.0, "Tipo": "Comercial", "Patente_co": "Servicio", "Licencia": "N/A", "Número_de": 5435, "FINCA": "0026460", "IDENTIFICA": "60101002646000", "PLANO": "614383162010" }, "geometry": { "type": "Point", "coordinates": [ -84.848472694259385, 9.9773241233097 ] } },
{ "type": "Feature", "properties": { "OBJECTID": 20, "Nombre_com": "ESQUINA DE LOS MARISCOS", "Cantidad_l": 1.0, "Tipo": "Desocupado", "Patente_co": "Comercio", "Licencia": "C", "Número_de": 1555, "FINCA": "0025389", "IDENTIFICA": "60101002538900", "PLANO": "610479152006" }, "geometry": { "type": "Point", "coordinates": [ -84.847839451929133, 9.976104098525354 ] } },
{ "type": "Feature", "properties": { "OBJECTID": 21, "Nombre_com": "LA ESQUINA DEL FERRY", "Cantidad_l": 1.0, "Tipo": "Comercial", "Patente_co": "Comercio", "Licencia": " ", "Número_de": 5053, "FINCA": "0011022", "IDENTIFICA": "60101001102200", "PLANO": "613316172009" }, "geometry": { "type": "Point", "coordinates": [ -84.847936622776899, 9.976884839563752 ] } },
{ "type": "Feature", "properties": { "OBJECTID": 22, "Nombre_com": "MyS", "Cantidad_l": 1.0, "Tipo": "Comercial", "Patente_co": "Comercio", "Licencia": "N/A", "Número_de": 92, "FINCA": "0007413", "IDENTIFICA": "60101000741300", "PLANO": "600144671975" }, "geometry": { "type": "Point", "coordinates": [ -84.845001258101547, 9.976816404753322 ] } },
{ "type": "Feature", "properties": { "OBJECTID": 23, "Nombre_com": "CABINAS MALAKO", "Cantidad_l": 1.0, "Tipo": "Comercial", "Patente_co": "Comercio", "Licencia": "N/A", "Número_de": 2132, "FINCA": "0210647", "IDENTIFICA": "60101021064700", "PLANO": "618658642015" }, "geometry": { "type": "Point", "coordinates": [ -84.844984626039604, 9.976729949327762 ] } },
{ "type": "Feature", "properties": { "OBJECTID": 24, "Nombre_com": "SODA ISABEL", "Cantidad_l": 1.0, "Tipo": "Comercial", "Patente_co": "Comercio", "Licencia": "N/A", "Número_de": 1346, "FINCA": "0007163", "IDENTIFICA": "60101000716300", "PLANO": "606493541986" }, "geometry": { "type": "Point", "coordinates": [ -84.844980019712125, 9.976513466323468 ] } },
{ "type": "Feature", "properties": { "OBJECTID": 25, "Nombre_com": "MINI SUPER LA PLAYA", "Cantidad_l": 1.0, "Tipo": "Ambas", "Patente_co": "Comercio", "Licencia": "D1", "Número_de": 1743, "FINCA": "0053869", "IDENTIFICA": "60101005386900", "PLANO": "613656772009" }, "geometry": { "type": "Point", "coordinates": [ -84.845197150228273, 9.974811404023114 ] } },
{ "type": "Feature", "properties": { "OBJECTID": 26, "Nombre_com": "CABINAS LUCIANA", "Cantidad_l": 1.0, "Tipo": "Comercial", "Patente_co": "Servicio", "Licencia": "N/A", "Número_de": 2164, "FINCA": "0185014", "IDENTIFICA": "60101018501400", "PLANO": "615407122011" }, "geometry": { "type": "Point", "coordinates": [ -84.844832005692467, 9.97512538342977 ] } },
{ "type": "Feature", "properties": { "OBJECTID": 27, "Nombre_com": "PULPERIA LA ECONOMICA", "Cantidad_l": 1.0, "Tipo": "Comercial", "Patente_co": "Comercio", "Licencia": "N/A", "Número_de": 351, "FINCA": "0007368", "IDENTIFICA": "60101000736800", "PLANO": "602202961994" }, "geometry": { "type": "Point", "coordinates": [ -84.845642613216, 9.976053295822965 ] } },
{ "type": "Feature", "properties": { "OBJECTID": 28, "Nombre_com": "SUPER LA MARAVILLOSA", "Cantidad_l": 1.0, "Tipo": "Comercial", "Patente_co": "Comercio", "Licencia": "N/A", "Número_de": 3205, "FINCA": "0007158", "IDENTIFICA": "60101000715800", "PLANO": "600391561977" }, "geometry": { "type": "Point", "coordinates": [ -84.844912468935263, 9.97611871430729 ] } },
{ "type": "Feature", "properties": { "OBJECTID": 29, "Nombre_com": "CYBER CAFE CONECTA2", "Cantidad_l": 1.0, "Tipo": "Comercial", "Patente_co": "Servicio", "Licencia": "N/A", "Número_de": 865, "FINCA": "0130709", "IDENTIFICA": "60101013070900", "PLANO": "602904471995" }, "geometry": { "type": "Point", "coordinates": [ -84.845013887281027, 9.976060940060393 ] } },
{ "type": "Feature", "properties": { "OBJECTID": 30, "Nombre_com": "BAR Y RESTAURANTE MASTIL", "Cantidad_l": 1.0, "Tipo": "Comercial", "Patente_co": "Servicio", "Licencia": "C", "Número_de": 1627, "FINCA": "0076977", "IDENTIFICA": "60101007697700", "PLANO": "600256431992" }, "geometry": { "type": "Point", "coordinates": [ -84.844387308027819, 9.974918962939853 ] } },
{ "type": "Feature", "properties": { "OBJECTID": 31, "Nombre_com": "SNAKERIA GRILL", "Cantidad_l": 1.0, "Tipo": "Comercial", "Patente_co": "Servicio", "Licencia": "N/A", "Número_de": 5293, "FINCA": "0008189", "IDENTIFICA": "60101000818900", "PLANO": "617044702013" }, "geometry": { "type": "Point", "coordinates": [ -84.844157559124028, 9.97494974763282 ] } },
{ "type": "Feature", "properties": { "OBJECTID": 32, "Nombre_com": "BAR Y RESTURANTE ENCUENTROS", "Cantidad_l": 1.0, "Tipo": "Comercial", "Patente_co": "Servicio", "Licencia": "C", "Número_de": 1043, "FINCA": "0083890", "IDENTIFICA": "60101008389000", "PLANO": "601047981993" }, "geometry": { "type": "Point", "coordinates": [ -84.843786718282388, 9.975204688345741 ] } },
{ "type": "Feature", "properties": { "OBJECTID": 33, "Nombre_com": "MARISQUERIA PATA LARGA", "Cantidad_l": 1.0, "Tipo": "Comercial", "Patente_co": "Servicio", "Licencia": "C", "Número_de": 2569, "FINCA": "0040584", "IDENTIFICA": "60101004058400", "PLANO": "600214401974" }, "geometry": { "type": "Point", "coordinates": [ -84.843167989211281, 9.97579231706186 ] } },
{ "type": "Feature", "properties": { "OBJECTID": 34, "Nombre_com": "PULPERÍA LA LIGIA", "Cantidad_l": 1.0, "Tipo": "Comercial", "Patente_co": "Comercio", "Licencia": "N/A", "Número_de": 2330, "FINCA": "0055401", "IDENTIFICA": "60101005540100", "PLANO": "606631851987" }, "geometry": { "type": "Point", "coordinates": [ -84.842712296435309, 9.975802583722327 ] } },
{ "type": "Feature", "properties": { "OBJECTID": 35, "Nombre_com": "SUPER CARNES NACHO", "Cantidad_l": 1.0, "Tipo": "Comercial", "Patente_co": "Comercio", "Licencia": "N/A", "Número_de": 2271, "FINCA": "0007213", "IDENTIFICA": "60101000721300", "PLANO": "600153371991" }, "geometry": { "type": "Point", "coordinates": [ -84.842523665434783, 9.976252592782998 ] } },
{ "type": "Feature", "properties": { "OBJECTID": 36, "Nombre_com": "VALIA BOLSOS Y +", "Cantidad_l": 1.0, "Tipo": "Comercial", "Patente_co": "Comercio", "Licencia": "N/A", "Número_de": 4295, "FINCA": "0007326", "IDENTIFICA": "60101000732600", "PLANO": "600034111975" }, "geometry": { "type": "Point", "coordinates": [ -84.841840418100787, 9.976412176580709 ] } },
{ "type": "Feature", "properties": { "OBJECTID": 37, "Nombre_com": "SUPER EL CARMEN", "Cantidad_l": 1.0, "Tipo": "Ambas", "Patente_co": "Comercio", "Licencia": "D1", "Número_de": 4025, "FINCA": "0021087", "IDENTIFICA": "60101002108700", "PLANO": "602096341994" }, "geometry": { "type": "Point", "coordinates": [ -84.841484273980029, 9.976409302347463 ] } },
{ "type": "Feature", "properties": { "OBJECTID": 38, "Nombre_com": "LUBRICENTRO PUNTARENAS", "Cantidad_l": 1.0, "Tipo": "Comercial", "Patente_co": "Servicio", "Licencia": "N/A", "Número_de": 1927, "FINCA": "0097063", "IDENTIFICA": "60101009706300", "PLANO": "602096351994" }, "geometry": { "type": "Point", "coordinates": [ -84.841432059342026, 9.976262429567498 ] } },
{ "type": "Feature", "properties": { "OBJECTID": 39, "Nombre_com": "TALLER ALVARADO", "Cantidad_l": 1.0, "Tipo": "Comercial", "Patente_co": "Servicio", "Licencia": "N/A", "Número_de": 2097, "FINCA": "0007727", "IDENTIFICA": "60101000772700", "PLANO": "603042691978" }, "geometry": { "type": "Point", "coordinates": [ -84.841016583348619, 9.976416651607224 ] } },
{ "type": "Feature", "properties": { "OBJECTID": 40, "Nombre_com": "AG ROOMS HOTEL", "Cantidad_l": 1.0, "Tipo": "Comercial", "Patente_co": "Servicio", "Licencia": "N/A", "Número_de": 1151, "FINCA": "0007863", "IDENTIFICA": "60101000786300", "PLANO": "609744511991" }, "geometry": { "type": "Point", "coordinates": [ -84.84195920055663, 9.975974988255132 ] } },
{ "type": "Feature", "properties": { "OBJECTID": 41, "Nombre_com": "LA CASA DE LOS HELADOS", "Cantidad_l": 1.0, "Tipo": "Comercial", "Patente_co": "Comercio", "Licencia": "N/A", "Número_de": 3418, "FINCA": "0009300", "IDENTIFICA": "60101000930000", "PLANO": "600021101966" }, "geometry": { "type": "Point", "coordinates": [ -84.841695979785584, 9.974829537053552 ] } },
{ "type": "Feature", "properties": { "OBJECTID": 42, "Nombre_com": "VELETTA", "Cantidad_l": 2.0, "Tipo": "Desocupado", "Patente_co": "Comercio", "Licencia": "C", "Número_de": 1071, "FINCA": "0007270", "IDENTIFICA": "60101000727000", "PLANO": "601558281993" }, "geometry": { "type": "Point", "coordinates": [ -84.839441172572037, 9.974992735226579 ] } },
{ "type": "Feature", "properties": { "OBJECTID": 43, "Nombre_com": "PULPERIA LA NUEVA JESUS DE PETATLAN", "Cantidad_l": 1.0, "Tipo": "Comercial", "Patente_co": "Comercio", "Licencia": "N/A", "Número_de": 3148, "FINCA": "0053759", "IDENTIFICA": "60101005375900", "PLANO": "606062461985" }, "geometry": { "type": "Point", "coordinates": [ -84.84037652325793, 9.976035738358689 ] } },
{ "type": "Feature", "properties": { "OBJECTID": 44, "Nombre_com": "SODA EL MAMBO", "Cantidad_l": 1.0, "Tipo": "Comercial", "Patente_co": "Comercio", "Licencia": "N/A", "Número_de": 2021, "FINCA": "0013751", "IDENTIFICA": "60101001375100", "PLANO": "604693321982" }, "geometry": { "type": "Point", "coordinates": [ -84.840437315629572, 9.97658449298001 ] } },
{ "type": "Feature", "properties": { "OBJECTID": 45, "Nombre_com": "BAR Y RESTAURANTE LAS DELICIAS DEL PUERTO", "Cantidad_l": 1.0, "Tipo": "Comercial", "Patente_co": "Servicio", "Licencia": "C", "Número_de": 2006, "FINCA": "0007943", "IDENTIFICA": "60101000794300", "PLANO": "604087321980" }, "geometry": { "type": "Point", "coordinates": [ -84.840564751362137, 9.97483989184758 ] } },
{ "type": "Feature", "properties": { "OBJECTID": 46, "Nombre_com": "RESTAURANTE CASA ALMENDRO", "Cantidad_l": 1.0, "Tipo": "Comercial", "Patente_co": "Comercio", "Licencia": "C", "Número_de": 1073, "FINCA": "0007447", "IDENTIFICA": "60101000744700", "PLANO": "605850121985" }, "geometry": { "type": "Point", "coordinates": [ -84.84123918623942, 9.974846255450359 ] } },
{ "type": "Feature", "properties": { "OBJECTID": 47, "Nombre_com": "SMOOTHYS AND HEALTH", "Cantidad_l": 1.0, "Tipo": "Comercial", "Patente_co": "Comercio", "Licencia": "N/A", "Número_de": 3388, "FINCA": "0007253", "IDENTIFICA": "60101000725300", "PLANO": "607692612002" }, "geometry": { "type": "Point", "coordinates": [ -84.841907548894255, 9.974846940733755 ] } },
{ "type": "Feature", "properties": { "OBJECTID": 48, "Nombre_com": "RESTAURANTE EL JORON", "Cantidad_l": 1.0, "Tipo": "Desocupado", "Patente_co": "Comercio", "Licencia": "C", "Número_de": 4695, "FINCA": "0007931", "IDENTIFICA": "60101000793100", "PLANO": "600020351974" }, "geometry": { "type": "Point", "coordinates": [ -84.843445929186259, 9.97502970635594 ] } },
{ "type": "Feature", "properties": { "OBJECTID": 49, "Nombre_com": "UNIVERSITY STUDIES ABROAD CONSORTIUM,INC", "Cantidad_l": 1.0, "Tipo": "Comercial", "Patente_co": "Servicio", "Licencia": "N/A", "Número_de": 4304, "FINCA": "0010438", "IDENTIFICA": "60101001043800", "PLANO": "611431652007" }, "geometry": { "type": "Point", "coordinates": [ -84.843213530879723, 9.975064425582843 ] } },
{ "type": "Feature", "properties": { "OBJECTID": 50, "Nombre_com": "BAR Y RESTAURANTE LAS CAÑITAS", "Cantidad_l": 1.0, "Tipo": "Ambas", "Patente_co": "Comercio", "Licencia": "C", "Número_de": 4159, "FINCA": "0007646", "IDENTIFICA": "60101000764600", "PLANO": "604164191980" }, "geometry": { "type": "Point", "coordinates": [ -84.840828340855182, 9.974872716202924 ] } },
{ "type": "Feature", "properties": { "OBJECTID": 51, "Nombre_com": "HOTEL TIOGA", "Cantidad_l": 1.0, "Tipo": "Comercial", "Patente_co": "Servicio", "Licencia": "D2", "Número_de": 2791, "FINCA": "0176615", "IDENTIFICA": "60101017661500", "PLANO": "614003692010" }, "geometry": { "type": "Point", "coordinates": [ -84.839919920368004, 9.974908385113906 ] } },
{ "type": "Feature", "properties": { "OBJECTID": 52, "Nombre_com": "SUPER MEDINA", "Cantidad_l": 1.0, "Tipo": "Comercial", "Patente_co": "Comercio", "Licencia": "N/A", "Número_de": 498, "FINCA": "0007359", "IDENTIFICA": "60101000735900", "PLANO": " " }, "geometry": { "type": "Point", "coordinates": [ -84.839613683224854, 9.97615847333492 ] } },
{ "type": "Feature", "properties": { "OBJECTID": 53, "Nombre_com": "MINI SUPER \"RENACER\"", "Cantidad_l": 1.0, "Tipo": "Comercial", "Patente_co": "Comercio", "Licencia": "N/A", "Número_de": 847, "FINCA": "0S01484", "IDENTIFICA": "601010S0148400", "PLANO": "604519251981" }, "geometry": { "type": "Point", "coordinates": [ -84.844807296819283, 9.977523572255109 ] } },
{ "type": "Feature", "properties": { "OBJECTID": 54, "Nombre_com": "JUEGOS IVO", "Cantidad_l": 1.0, "Tipo": "Comercial", "Patente_co": "Comercio", "Licencia": "N/A", "Número_de": 4397, "FINCA": "0014219", "IDENTIFICA": "60101001421900", "PLANO": "607756962002" }, "geometry": { "type": "Point", "coordinates": [ -84.844678646102579, 9.976378083281986 ] } },
{ "type": "Feature", "properties": { "OBJECTID": 55, "Nombre_com": "CICLO CICLON", "Cantidad_l": 1.0, "Tipo": "Comercial", "Patente_co": "Comercio", "Licencia": "N/A", "Número_de": 3390, "FINCA": "0087307", "IDENTIFICA": "60101008730700", "PLANO": "600968931993" }, "geometry": { "type": "Point", "coordinates": [ -84.84310954407016, 9.976633917021729 ] } },
{ "type": "Feature", "properties": { "OBJECTID": 56, "Nombre_com": "CABINAS CONTRERAS", "Cantidad_l": 10.0, "Tipo": "Comercial", "Patente_co": "Comercio", "Licencia": "N/A", "Número_de": 2301, "FINCA": "0013285", "IDENTIFICA": "60101001328500", "PLANO": "608050191989" }, "geometry": { "type": "Point", "coordinates": [ -84.843047817302875, 9.97666760832351 ] } },
{ "type": "Feature", "properties": { "OBJECTID": 57, "Nombre_com": "CABINAS DANNYS", "Cantidad_l": 1.0, "Tipo": "Comercial", "Patente_co": "Comercio", "Licencia": "N/A", "Número_de": 0, "FINCA": "0018271", "IDENTIFICA": "60101001827100", "PLANO": "600179331972" }, "geometry": { "type": "Point", "coordinates": [ -84.842788528367862, 9.976653532134833 ] } },
{ "type": "Feature", "properties": { "OBJECTID": 58, "Nombre_com": "MARISCOS ESCORPIÓN 2", "Cantidad_l": 1.0, "Tipo": "Comercial", "Patente_co": "Comercio", "Licencia": "N/A", "Número_de": 1974, "FINCA": "0015519", "IDENTIFICA": "60101001551900", "PLANO": "607922032002" }, "geometry": { "type": "Point", "coordinates": [ -84.840769561166269, 9.977626730789041 ] } },
{ "type": "Feature", "properties": { "OBJECTID": 59, "Nombre_com": "KAITE BLANCO", "Cantidad_l": 1.0, "Tipo": "Ambas", "Patente_co": "Comercio", "Licencia": "C", "Número_de": 877, "FINCA": "P000706", "IDENTIFICA": "60101P00070600", "PLANO": " " }, "geometry": { "type": "Point", "coordinates": [ -84.840373908928711, 9.977651777807353 ] } },
{ "type": "Feature", "properties": { "OBJECTID": 60, "Nombre_com": "KAITE NEGRO", "Cantidad_l": 1.0, "Tipo": "Desocupado", "Patente_co": "Comercio", "Licencia": "C", "Número_de": 0, "FINCA": "0132499", "IDENTIFICA": "60101013249900", "PLANO": "609651822004" }, "geometry": { "type": "Point", "coordinates": [ -84.840289891565192, 9.977809983843713 ] } },
{ "type": "Feature", "properties": { "OBJECTID": 61, "Nombre_com": "ACADEMIA LIDER", "Cantidad_l": 1.0, "Tipo": "Comercial", "Patente_co": "Comercio", "Licencia": "N/A", "Número_de": 3787, "FINCA": "0017778", "IDENTIFICA": "60101001777800", "PLANO": "609066191990" }, "geometry": { "type": "Point", "coordinates": [ -84.839372562393805, 9.976950384852444 ] } },
{ "type": "Feature", "properties": { "OBJECTID": 62, "Nombre_com": "PULPERÍA EL ALMENDRO", "Cantidad_l": 1.0, "Tipo": "Comercial", "Patente_co": "Comercio", "Licencia": "N/A", "Número_de": 2104, "FINCA": "0007444", "IDENTIFICA": "60101000744400", "PLANO": "600024781966" }, "geometry": { "type": "Point", "coordinates": [ -84.83936080555668, 9.977288433714307 ] } },
{ "type": "Feature", "properties": { "OBJECTID": 63, "Nombre_com": "CABINAS PUNTA MAR", "Cantidad_l": 1.0, "Tipo": "Comercial", "Patente_co": "Servicio", "Licencia": "N/A", "Número_de": 2197, "FINCA": "0022473", "IDENTIFICA": "60101002247300", "PLANO": "605993971985" }, "geometry": { "type": "Point", "coordinates": [ -84.84091842864251, 9.976448992127359 ] } },
{ "type": "Feature", "properties": { "OBJECTID": 64, "Nombre_com": "HOTEL MARGARITA", "Cantidad_l": 1.0, "Tipo": "Comercial", "Patente_co": "Servicio", "Licencia": "N/A", "Número_de": 2200, "FINCA": "0007395", "IDENTIFICA": "60101000739500", "PLANO": "612595112008" }, "geometry": { "type": "Point", "coordinates": [ -84.839112545007936, 9.975458819668859 ] } },
{ "type": "Feature", "properties": { "OBJECTID": 65, "Nombre_com": "LA CASA DE LOS HELADOS #2", "Cantidad_l": 1.0, "Tipo": "Comercial", "Patente_co": "Comercio", "Licencia": "N/A", "Número_de": 3185, "FINCA": "0007307", "IDENTIFICA": "60101000730700", "PLANO": "608928832003" }, "geometry": { "type": "Point", "coordinates": [ -84.838727696326089, 9.975037124863491 ] } },
{ "type": "Feature", "properties": { "OBJECTID": 66, "Nombre_com": "SODA Y HELADERIA Y EL PASEO", "Cantidad_l": 1.0, "Tipo": "Comercial", "Patente_co": "Servicio", "Licencia": "N/A", "Número_de": 4060, "FINCA": "0012746", "IDENTIFICA": "60101001274600", "PLANO": "615072172011" }, "geometry": { "type": "Point", "coordinates": [ -84.83840041594641, 9.975057361408176 ] } },
{ "type": "Feature", "properties": { "OBJECTID": 67, "Nombre_com": "CHIRY TACOS", "Cantidad_l": 1.0, "Tipo": "Comercial", "Patente_co": "Servicio", "Licencia": "N/A", "Número_de": 4806, "FINCA": "0009471", "IDENTIFICA": "60101000947100", "PLANO": "604350761981" }, "geometry": { "type": "Point", "coordinates": [ -84.837918936010055, 9.975080840008786 ] } },
{ "type": "Feature", "properties": { "OBJECTID": 68, "Nombre_com": "RESTAURANTE Y MARISQUERIA LA OSTRA", "Cantidad_l": 1.0, "Tipo": "Desocupado", "Patente_co": "Servicio", "Licencia": "C", "Número_de": 1635, "FINCA": "0010824", "IDENTIFICA": "60101001082400", "PLANO": "604350771981" }, "geometry": { "type": "Point", "coordinates": [ -84.83786656938662, 9.975086471563486 ] } },
{ "type": "Feature", "properties": { "OBJECTID": 69, "Nombre_com": "CABINAS MIDEY", "Cantidad_l": 1.0, "Tipo": "Comercial", "Patente_co": "Servicio", "Licencia": "N/A", "Número_de": 3102, "FINCA": "0011326", "IDENTIFICA": "60101001132600", "PLANO": "600166251972" }, "geometry": { "type": "Point", "coordinates": [ -84.837934722709235, 9.975776405356896 ] } },
{ "type": "Feature", "properties": { "OBJECTID": 70, "Nombre_com": "CABINAS YALUZ", "Cantidad_l": 1.0, "Tipo": "Comercial", "Patente_co": "Servicio", "Licencia": "N/A", "Número_de": 3130, "FINCA": "0032713", "IDENTIFICA": "60101003271300", "PLANO": "603620481979" }, "geometry": { "type": "Point", "coordinates": [ -84.837989869137118, 9.976541425346568 ] } },
{ "type": "Feature", "properties": { "OBJECTID": 71, "Nombre_com": "PANADERIA MUSMANNI ESTADIO", "Cantidad_l": 1.0, "Tipo": "Comercial", "Patente_co": "Comercio", "Licencia": "N/A", "Número_de": 4622, "FINCA": "0034031", "IDENTIFICA": "60101003403100", "PLANO": "603752021980" }, "geometry": { "type": "Point", "coordinates": [ -84.838060259073643, 9.976772051988632 ] } },
{ "type": "Feature", "properties": { "OBJECTID": 72, "Nombre_com": "YELLOW FIN", "Cantidad_l": 1.0, "Tipo": "Comercial", "Patente_co": "Comercio", "Licencia": "N/A", "Número_de": 0, "FINCA": "0011048", "IDENTIFICA": "60101001104800", "PLANO": "607828471988" }, "geometry": { "type": "Point", "coordinates": [ -84.839260699321756, 9.975770080424923 ] } },
{ "type": "Feature", "properties": { "OBJECTID": 73, "Nombre_com": "EL CHAVAL", "Cantidad_l": 1.0, "Tipo": "Comercial", "Patente_co": "Servicio", "Licencia": "C", "Número_de": 4596, "FINCA": "0007428", "IDENTIFICA": "60101000742800", "PLANO": "609605052004" }, "geometry": { "type": "Point", "coordinates": [ -84.83917132289821, 9.974982821999674 ] } },
{ "type": "Feature", "properties": { "OBJECTID": 74, "Nombre_com": "AGUAMARINA", "Cantidad_l": 1.0, "Tipo": "Ambas", "Patente_co": "Comercio", "Licencia": "A", "Número_de": 1660, "FINCA": "0007844", "IDENTIFICA": "60101000784400", "PLANO": "602997581978" }, "geometry": { "type": "Point", "coordinates": [ -84.838614574203177, 9.975026319509084 ] } },
{ "type": "Feature", "properties": { "OBJECTID": 75, "Nombre_com": "CAPITAN MORENO", "Cantidad_l": 1.0, "Tipo": "Comercial", "Patente_co": "Comercio", "Licencia": "C", "Número_de": 55, "FINCA": null, "IDENTIFICA": null, "PLANO": null }, "geometry": { "type": "Point", "coordinates": [ -84.837798655283677, 9.974618342062911 ] } },
{ "type": "Feature", "properties": { "OBJECTID": 76, "Nombre_com": "CABINAS CONFORT", "Cantidad_l": 1.0, "Tipo": "Comercial", "Patente_co": "Servicio", "Licencia": "N/A", "Número_de": 5916, "FINCA": "0007574", "IDENTIFICA": "60101000757400", "PLANO": "608011402002" }, "geometry": { "type": "Point", "coordinates": [ -84.838693976245963, 9.975953269627723 ] } },
{ "type": "Feature", "properties": { "OBJECTID": 77, "Nombre_com": "BUHO´S", "Cantidad_l": 2.0, "Tipo": "Ambas", "Patente_co": "Comercio", "Licencia": "B2", "Número_de": 0, "FINCA": "0007428", "IDENTIFICA": "60101000742800", "PLANO": "609605052004" }, "geometry": { "type": "Point", "coordinates": [ -84.839186668929585, 9.975057272375295 ] } },
{ "type": "Feature", "properties": { "OBJECTID": 78, "Nombre_com": "CABINAS GENESIS", "Cantidad_l": 1.0, "Tipo": "Comercial", "Patente_co": "Servicio", "Licencia": "N/A", "Número_de": 5029, "FINCA": "0010596", "IDENTIFICA": "60101001059600", "PLANO": "601072051993" }, "geometry": { "type": "Point", "coordinates": [ -84.837901379445043, 9.975200176447061 ] } },
{ "type": "Feature", "properties": { "OBJECTID": 79, "Nombre_com": "DISTRIBUIDORA CRUZ", "Cantidad_l": 1.0, "Tipo": "Comercial", "Patente_co": "Comercio", "Licencia": "A", "Número_de": 1864, "FINCA": "0037021", "IDENTIFICA": "60101003702100", "PLANO": "607718542002" }, "geometry": { "type": "Point", "coordinates": [ -84.837136559104863, 9.976861678423745 ] } },
{ "type": "Feature", "properties": { "OBJECTID": 80, "Nombre_com": "NUEVO HORIZONTE BABY CARE", "Cantidad_l": 1.0, "Tipo": "Comercial", "Patente_co": "Servicio", "Licencia": "N/A", "Número_de": 4732, "FINCA": "0003637", "IDENTIFICA": "601010003637A0", "PLANO": "604802401982" }, "geometry": { "type": "Point", "coordinates": [ -84.835514647083244, 9.976902531027008 ] } },
{ "type": "Feature", "properties": { "OBJECTID": 81, "Nombre_com": "UNIVERSIDAD HISPANOAMERICANA", "Cantidad_l": 1.0, "Tipo": "Comercial", "Patente_co": "Servicio", "Licencia": "N/A", "Número_de": 3781, "FINCA": "0008868", "IDENTIFICA": "60101000886800", "PLANO": "600513351959" }, "geometry": { "type": "Point", "coordinates": [ -84.835856733001776, 9.975662901921453 ] } },
{ "type": "Feature", "properties": { "OBJECTID": 82, "Nombre_com": "MINI SUPER VERACRUZ", "Cantidad_l": 1.0, "Tipo": "Comercial", "Patente_co": "Comercio", "Licencia": "A", "Número_de": 4013, "FINCA": "0008413", "IDENTIFICA": "60101000841300", "PLANO": "603974711997" }, "geometry": { "type": "Point", "coordinates": [ -84.834995157300625, 9.97610776056473 ] } },
{ "type": "Feature", "properties": { "OBJECTID": 83, "Nombre_com": "EXPRESS CHOMPI'S", "Cantidad_l": 1.0, "Tipo": "Comercial", "Patente_co": "Comercio", "Licencia": "N/A", "Número_de": 15, "FINCA": "0017875", "IDENTIFICA": "60101001787500", "PLANO": "600183881974" }, "geometry": { "type": "Point", "coordinates": [ -84.83500211535528, 9.975988943035361 ] } },
{ "type": "Feature", "properties": { "OBJECTID": 84, "Nombre_com": "PUNTARENAS BACKPAKERS BY ALDEA", "Cantidad_l": 1.0, "Tipo": "Comercial", "Patente_co": "Comercio", "Licencia": "N/A", "Número_de": 5419, "FINCA": "0008412", "IDENTIFICA": "60101000841200", "PLANO": "607963442002" }, "geometry": { "type": "Point", "coordinates": [ -84.834923003793563, 9.975780273341002 ] } },
{ "type": "Feature", "properties": { "OBJECTID": 85, "Nombre_com": "TACOS ELOY", "Cantidad_l": 1.0, "Tipo": "Comercial", "Patente_co": "Comercio", "Licencia": "N/A", "Número_de": 590, "FINCA": "0020421", "IDENTIFICA": "60101002042100", "PLANO": "600045431966" }, "geometry": { "type": "Point", "coordinates": [ -84.840934701874971, 9.974895853960561 ] } },
{ "type": "Feature", "properties": { "OBJECTID": 86, "Nombre_com": "VENTA DE GAS IVÁN SHEEDDEN", "Cantidad_l": 1.0, "Tipo": "choice5", "Patente_co": "choice6", "Licencia": "N/A", "Número_de": 0, "FINCA": "0012081", "IDENTIFICA": "60101001208100", "PLANO": "601406751993" }, "geometry": { "type": "Point", "coordinates": [ -84.848284906822926, 9.975693129934029 ] } },
{ "type": "Feature", "properties": { "OBJECTID": 87, "Nombre_com": "MARISQUERIA ACUARIO", "Cantidad_l": 1.0, "Tipo": "Comercial", "Patente_co": "Comercio", "Licencia": "C", "Número_de": 2137, "FINCA": "0007317", "IDENTIFICA": "60101000731700", "PLANO": "606504971986" }, "geometry": { "type": "Point", "coordinates": [ -84.839036553194319, 9.976991554017047 ] } },
{ "type": "Feature", "properties": { "OBJECTID": 88, "Nombre_com": "CABINAS MADELEINE", "Cantidad_l": 1.0, "Tipo": "Comercial", "Patente_co": "Servicio", "Licencia": "N/A", "Número_de": 4583, "FINCA": "0007210", "IDENTIFICA": "60101000721000", "PLANO": "609425192004" }, "geometry": { "type": "Point", "coordinates": [ -84.838778350640325, 9.976960952785817 ] } },
{ "type": "Feature", "properties": { "OBJECTID": 89, "Nombre_com": "MINI SÚPER PURA VIDA", "Cantidad_l": 1.0, "Tipo": "Comercial", "Patente_co": "Comercio", "Licencia": "N/A", "Número_de": 1796, "FINCA": "0096858", "IDENTIFICA": "60101009685800", "PLANO": "610460762006" }, "geometry": { "type": "Point", "coordinates": [ -84.838561026769924, 9.977081731736575 ] } },
{ "type": "Feature", "properties": { "OBJECTID": 90, "Nombre_com": "TALLER BRENES", "Cantidad_l": 1.0, "Tipo": "Comercial", "Patente_co": "Comercio", "Licencia": "N/A", "Número_de": 3037, "FINCA": "0010332", "IDENTIFICA": "60101001033200", "PLANO": "605748131985" }, "geometry": { "type": "Point", "coordinates": [ -84.83930263111148, 9.977719226960801 ] } },
{ "type": "Feature", "properties": { "OBJECTID": 91, "Nombre_com": "PASTELERÍA ZUKÁ", "Cantidad_l": 1.0, "Tipo": "Comercial", "Patente_co": "Comercio", "Licencia": "N/A", "Número_de": 4419, "FINCA": "0089719", "IDENTIFICA": "60101008971900", "PLANO": "600016691991" }, "geometry": { "type": "Point", "coordinates": [ -84.838702178063045, 9.977886605182732 ] } },
{ "type": "Feature", "properties": { "OBJECTID": 92, "Nombre_com": "PEKO FISH", "Cantidad_l": 1.0, "Tipo": "Comercial", "Patente_co": "Pesca", "Licencia": "N/A", "Número_de": 3694, "FINCA": "P000119", "IDENTIFICA": "60101P00011900", "PLANO": "602881881977" }, "geometry": { "type": "Point", "coordinates": [ -84.838912254297043, 9.978961176317284 ] } },
{ "type": "Feature", "properties": { "OBJECTID": 93, "Nombre_com": "LA CASA DEL POLLO PORTEÑO", "Cantidad_l": 1.0, "Tipo": "Comercial", "Patente_co": "Comercio", "Licencia": "N/A", "Número_de": 2339, "FINCA": "0079334", "IDENTIFICA": "60101007933400", "PLANO": "604226761981" }, "geometry": { "type": "Point", "coordinates": [ -84.837800112185391, 9.977113996713626 ] } },
{ "type": "Feature", "properties": { "OBJECTID": 94, "Nombre_com": "SOLUCIONES GRÁFICAS", "Cantidad_l": 1.0, "Tipo": "Comercial", "Patente_co": "Comercio", "Licencia": "N/A", "Número_de": 5486, "FINCA": "P000600", "IDENTIFICA": "60101P00060000", "PLANO": " " }, "geometry": { "type": "Point", "coordinates": [ -84.836266512689349, 9.977220805595778 ] } },
{ "type": "Feature", "properties": { "OBJECTID": 95, "Nombre_com": "SÚPER LA LIBERTAD", "Cantidad_l": 1.0, "Tipo": "Comercial", "Patente_co": "Comercio", "Licencia": "D1", "Número_de": 5220, "FINCA": "0004775", "IDENTIFICA": "60101000477500", "PLANO": "603474151979" }, "geometry": { "type": "Point", "coordinates": [ -84.837852880805769, 9.97774170641469 ] } },
{ "type": "Feature", "properties": { "OBJECTID": 96, "Nombre_com": "RESTAURANTE LA CASONA", "Cantidad_l": 1.0, "Tipo": "choice4", "Patente_co": "choice5", "Licencia": "N/A", "Número_de": 0, "FINCA": "0007099", "IDENTIFICA": "60101000709900", "PLANO": "605509001984" }, "geometry": { "type": "Point", "coordinates": [ -84.836025295630861, 9.978268912380429 ] } },
{ "type": "Feature", "properties": { "OBJECTID": 97, "Nombre_com": "DISEÑOS E IMPRESIÓNES R Y A", "Cantidad_l": 1.0, "Tipo": "Comercial", "Patente_co": "Comercio", "Licencia": "choice13", "Número_de": 3477, "FINCA": "0144962", "IDENTIFICA": "60101014496200", "PLANO": "605562051999" }, "geometry": { "type": "Point", "coordinates": [ -84.836028554773918, 9.978446471827283 ] } },
{ "type": "Feature", "properties": { "OBJECTID": 98, "Nombre_com": "MUELLE JOSE HUANG FABRICA DE HIELO Y TRANSPORTE Y VENTA DE MARISCOS", "Cantidad_l": 1.0, "Tipo": "Comercial", "Patente_co": "Comercio", "Licencia": "N/A", "Número_de": 2940, "FINCA": "0017306", "IDENTIFICA": "60101001730600", "PLANO": "603221801978" }, "geometry": { "type": "Point", "coordinates": [ -84.836049094390148, 9.979865092999717 ] } },
{ "type": "Feature", "properties": { "OBJECTID": 99, "Nombre_com": "TALLER ROGER", "Cantidad_l": 1.0, "Tipo": "Comercial", "Patente_co": "Comercio", "Licencia": "N/A", "Número_de": 1798, "FINCA": "0012725", "IDENTIFICA": "60101001272500", "PLANO": "600067361969" }, "geometry": { "type": "Point", "coordinates": [ -84.835429421930257, 9.979396694601803 ] } },
{ "type": "Feature", "properties": { "OBJECTID": 100, "Nombre_com": "AVENTURAS MARÍTIMAS OKEANOS", "Cantidad_l": 1.0, "Tipo": "Comercial", "Patente_co": "Comercio", "Licencia": "N/A", "Número_de": 1047, "FINCA": "0126882", "IDENTIFICA": "60101012688200", "PLANO": "608080412002" }, "geometry": { "type": "Point", "coordinates": [ -84.835448001923737, 9.979812355855586 ] } },
{ "type": "Feature", "properties": { "OBJECTID": 101, "Nombre_com": "SODA LA FAVORITA", "Cantidad_l": 1.0, "Tipo": "Comercial", "Patente_co": "Comercio", "Licencia": "N/A", "Número_de": 0, "FINCA": "0007870", "IDENTIFICA": "60101000787000", "PLANO": "607580142001" }, "geometry": { "type": "Point", "coordinates": [ -84.835273242965741, 9.978309075203697 ] } },
{ "type": "Feature", "properties": { "OBJECTID": 102, "Nombre_com": "TICOCO S.A", "Cantidad_l": 1.0, "Tipo": "Comercial", "Patente_co": "Comercio", "Licencia": "N/A", "Número_de": 0, "FINCA": "0004371", "IDENTIFICA": "60101000437100", "PLANO": "611913622007" }, "geometry": { "type": "Point", "coordinates": [ -84.835035946052017, 9.979762946203039 ] } },
{ "type": "Feature", "properties": { "OBJECTID": 103, "Nombre_com": "CALYPSO TOUR", "Cantidad_l": 1.0, "Tipo": "Comercial", "Patente_co": "Servicio", "Licencia": "C", "Número_de": 4125, "FINCA": "0004209", "IDENTIFICA": "60101000420900", "PLANO": "606659002000" }, "geometry": { "type": "Point", "coordinates": [ -84.834245200055875, 9.97969953410626 ] } },
{ "type": "Feature", "properties": { "OBJECTID": 104, "Nombre_com": "FRAICHE", "Cantidad_l": 1.0, "Tipo": "Comercial", "Patente_co": "Comercio", "Licencia": "N/A", "Número_de": 3795, "FINCA": "0000000", "IDENTIFICA": "60101000000000", "PLANO": " " }, "geometry": { "type": "Point", "coordinates": [ -84.83353547488224, 9.979327799338535 ] } },
{ "type": "Feature", "properties": { "OBJECTID": 105, "Nombre_com": "RESTAURANTE MAREAS", "Cantidad_l": 1.0, "Tipo": "Comercial", "Patente_co": "Servicio", "Licencia": "N/A", "Número_de": 3170, "FINCA": "0000000", "IDENTIFICA": "60101000000000", "PLANO": " " }, "geometry": { "type": "Point", "coordinates": [ -84.833449774887185, 9.979339823274302 ] } },
{ "type": "Feature", "properties": { "OBJECTID": 106, "Nombre_com": "TIENDA CASTAÑEDA", "Cantidad_l": 1.0, "Tipo": "Comercial", "Patente_co": "Comercio", "Licencia": "N/A", "Número_de": 5294, "FINCA": "0004857", "IDENTIFICA": "60101000485700", "PLANO": "613027892008" }, "geometry": { "type": "Point", "coordinates": [ -84.83309905817498, 9.97943061433142 ] } },
{ "type": "Feature", "properties": { "OBJECTID": 107, "Nombre_com": "THE GARAGE STORE", "Cantidad_l": 1.0, "Tipo": "Comercial", "Patente_co": "Comercio", "Licencia": "N/A", "Número_de": 3853, "FINCA": "0004068", "IDENTIFICA": "60101000406800", "PLANO": "613056512008" }, "geometry": { "type": "Point", "coordinates": [ -84.832961559928037, 9.979510023568764 ] } },
{ "type": "Feature", "properties": { "OBJECTID": 108, "Nombre_com": "CABINAS LA CENTRAL", "Cantidad_l": 1.0, "Tipo": "Comercial", "Patente_co": "Servicio", "Licencia": "N/A", "Número_de": 3209, "FINCA": "0016022", "IDENTIFICA": "60101001602200", "PLANO": "600200611974" }, "geometry": { "type": "Point", "coordinates": [ -84.835317411369374, 9.975733907893584 ] } },
{ "type": "Feature", "properties": { "OBJECTID": 109, "Nombre_com": "HOTEL PUNTARENAS BEACH", "Cantidad_l": 1.0, "Tipo": "Comercial", "Patente_co": "Servicio", "Licencia": "N/A", "Número_de": 4515, "FINCA": "0005704", "IDENTIFICA": "60101000570400", "PLANO": "614290532010" }, "geometry": { "type": "Point", "coordinates": [ -84.835319993322969, 9.975307734464423 ] } },
{ "type": "Feature", "properties": { "OBJECTID": 110, "Nombre_com": "SUPER FAMILIAR", "Cantidad_l": 1.0, "Tipo": "Comercial", "Patente_co": "Comercio", "Licencia": "D1", "Número_de": 4621, "FINCA": "0005704", "IDENTIFICA": "60101000570400", "PLANO": "614290532010" }, "geometry": { "type": "Point", "coordinates": [ -84.83520889197672, 9.975314664640109 ] } },
{ "type": "Feature", "properties": { "OBJECTID": 111, "Nombre_com": "CASINO HOTEL PUNTARENAS BECH", "Cantidad_l": 1.0, "Tipo": "Desocupado", "Patente_co": "Comercio", "Licencia": "B2", "Número_de": 1746, "FINCA": "0005704", "IDENTIFICA": "60101000570400", "PLANO": "614290532010" }, "geometry": { "type": "Point", "coordinates": [ -84.835320922322694, 9.975439146999065 ] } },
{ "type": "Feature", "properties": { "OBJECTID": 112, "Nombre_com": "RESTAURANTE LA PERLA DEL PACIFICO", "Cantidad_l": 1.0, "Tipo": "Desocupado", "Patente_co": "Servicio", "Licencia": "C", "Número_de": 4022, "FINCA": null, "IDENTIFICA": null, "PLANO": null }, "geometry": { "type": "Point", "coordinates": [ -84.835040026276147, 9.974888585639746 ] } },
{ "type": "Feature", "properties": { "OBJECTID": 113, "Nombre_com": "HOTEL LAS HAMACAS", "Cantidad_l": 1.0, "Tipo": "Comercial", "Patente_co": "Servicio", "Licencia": "N/A", "Número_de": 949, "FINCA": "0016101", "IDENTIFICA": "60101001610100", "PLANO": "600229181976" }, "geometry": { "type": "Point", "coordinates": [ -84.834719344222322, 9.975315386795728 ] } },
{ "type": "Feature", "properties": { "OBJECTID": 114, "Nombre_com": "PIZZA HUT", "Cantidad_l": 1.0, "Tipo": "Comercial", "Patente_co": "Servicio", "Licencia": "N/A", "Número_de": 3658, "FINCA": "0007921", "IDENTIFICA": "60101000792100", "PLANO": "603863581980" }, "geometry": { "type": "Point", "coordinates": [ -84.834413836429349, 9.975338491278421 ] } },
{ "type": "Feature", "properties": { "OBJECTID": 115, "Nombre_com": "KIOSKO BUM BUM", "Cantidad_l": 1.0, "Tipo": "Ambas", "Patente_co": "Comercio", "Licencia": "C", "Número_de": 4570, "FINCA": null, "IDENTIFICA": null, "PLANO": null }, "geometry": { "type": "Point", "coordinates": [ -84.834261227773425, 9.975042521695059 ] } },
{ "type": "Feature", "properties": { "OBJECTID": 116, "Nombre_com": "RESTAURANTE OASIS DEL PACIFICO", "Cantidad_l": 1.0, "Tipo": "Comercial", "Patente_co": "Comercio", "Licencia": "C", "Número_de": 4211, "FINCA": "0002920", "IDENTIFICA": "60101000292000", "PLANO": "607408421988" }, "geometry": { "type": "Point", "coordinates": [ -84.834193772324682, 9.975359929317335 ] } },
{ "type": "Feature", "properties": { "OBJECTID": 117, "Nombre_com": "APETITO CAFE & REST", "Cantidad_l": 1.0, "Tipo": "Comercial", "Patente_co": "Comercio", "Licencia": "N/A", "Número_de": 5654, "FINCA": "0003999", "IDENTIFICA": "60101000399900", "PLANO": "606552811986" }, "geometry": { "type": "Point", "coordinates": [ -84.834455625226894, 9.97604389610899 ] } },
{ "type": "Feature", "properties": { "OBJECTID": 118, "Nombre_com": "AGENCIA DE EQUIPOS HUSQUARNA", "Cantidad_l": 1.0, "Tipo": "Comercial", "Patente_co": "Comercio", "Licencia": "N/A", "Número_de": 2102, "FINCA": "0010081", "IDENTIFICA": "60101001008100", "PLANO": "600500351955" }, "geometry": { "type": "Point", "coordinates": [ -84.834661673397477, 9.976055918246061 ] } },
{ "type": "Feature", "properties": { "OBJECTID": 119, "Nombre_com": "QUICK STOP", "Cantidad_l": 1.0, "Tipo": "Comercial", "Patente_co": "Comercio", "Licencia": "N/A", "Número_de": 0, "FINCA": "0004541", "IDENTIFICA": "60101000454100", "PLANO": "610802162006" }, "geometry": { "type": "Point", "coordinates": [ -84.834478771977729, 9.976356661430827 ] } },
{ "type": "Feature", "properties": { "OBJECTID": 120, "Nombre_com": "BAR EL MARINO", "Cantidad_l": 1.0, "Tipo": "Licores", "Patente_co": "Comercio", "Licencia": "C", "Número_de": 241, "FINCA": "0058094", "IDENTIFICA": "60101005809400", "PLANO": "607356581988" }, "geometry": { "type": "Point", "coordinates": [ -84.835992632254147, 9.97626869244624 ] } },
{ "type": "Feature", "properties": { "OBJECTID": 121, "Nombre_com": "SODA SHIRLEY", "Cantidad_l": 1.0, "Tipo": "Comercial", "Patente_co": "Comercio", "Licencia": "N/A", "Número_de": 5351, "FINCA": "0003586", "IDENTIFICA": "60101000358600", "PLANO": "602799941977" }, "geometry": { "type": "Point", "coordinates": [ -84.836034118879468, 9.976948518759173 ] } },
{ "type": "Feature", "properties": { "OBJECTID": 122, "Nombre_com": " TALLER CICLO TOXA", "Cantidad_l": 1.0, "Tipo": "Comercial", "Patente_co": "Servicio", "Licencia": "N/A", "Número_de": 255, "FINCA": "0002843", "IDENTIFICA": "60101000284300", "PLANO": "602901661977" }, "geometry": { "type": "Point", "coordinates": [ -84.835768370114124, 9.976953160160235 ] } },
{ "type": "Feature", "properties": { "OBJECTID": 123, "Nombre_com": "ESCALANTE", "Cantidad_l": 1.0, "Tipo": "Comercial", "Patente_co": "Comercio", "Licencia": "N/A", "Número_de": 3895, "FINCA": "0010069", "IDENTIFICA": "60101001006900", "PLANO": "606421152000" }, "geometry": { "type": "Point", "coordinates": [ -84.835022600112893, 9.976902941117885 ] } },
{ "type": "Feature", "properties": { "OBJECTID": 124, "Nombre_com": "LIBRERIA GEN WONG", "Cantidad_l": 1.0, "Tipo": "Comercial", "Patente_co": "Comercio", "Licencia": "N/A", "Número_de": 1761, "FINCA": "0010068", "IDENTIFICA": "60101001006800", "PLANO": "600025231964" }, "geometry": { "type": "Point", "coordinates": [ -84.834984450871673, 9.977043369356068 ] } },
{ "type": "Feature", "properties": { "OBJECTID": 125, "Nombre_com": "SODA LA TIA", "Cantidad_l": 2.0, "Tipo": "Comercial", "Patente_co": "Comercio", "Licencia": "N/A", "Número_de": 2095, "FINCA": "0012786", "IDENTIFICA": "60101001278600", "PLANO": "609474132004" }, "geometry": { "type": "Point", "coordinates": [ -84.834928189284483, 9.977004145425042 ] } },
{ "type": "Feature", "properties": { "OBJECTID": 126, "Nombre_com": "PASTELES D'S", "Cantidad_l": 2.0, "Tipo": "Comercial", "Patente_co": "Comercio", "Licencia": "N/A", "Número_de": 3814, "FINCA": "0012786", "IDENTIFICA": "60101001278600", "PLANO": "609474132004" }, "geometry": { "type": "Point", "coordinates": [ -84.83492790240075, 9.977069561211351 ] } },
{ "type": "Feature", "properties": { "OBJECTID": 127, "Nombre_com": "SODA LA CATEDRAL", "Cantidad_l": 1.0, "Tipo": "Comercial", "Patente_co": "Servicio", "Licencia": "N/A", "Número_de": 4015, "FINCA": "0010063", "IDENTIFICA": "60101001006300", "PLANO": "600013671973" }, "geometry": { "type": "Point", "coordinates": [ -84.834687254613073, 9.97707813714635 ] } },
{ "type": "Feature", "properties": { "OBJECTID": 128, "Nombre_com": "COMPU SUMINISTROS FOFO", "Cantidad_l": 1.0, "Tipo": "Comercial", "Patente_co": "Servicio", "Licencia": "N/A", "Número_de": 2799, "FINCA": "0012868", "IDENTIFICA": "60101001286800", "PLANO": "600519891961" }, "geometry": { "type": "Point", "coordinates": [ -84.834263590292437, 9.977123629352036 ] } },
{ "type": "Feature", "properties": { "OBJECTID": 129, "Nombre_com": "OLIVIA PLUS", "Cantidad_l": 1.0, "Tipo": "Comercial", "Patente_co": "Comercio", "Licencia": "N/A", "Número_de": 4706, "FINCA": "0057316", "IDENTIFICA": "60101005731600", "PLANO": "602031741994" }, "geometry": { "type": "Point", "coordinates": [ -84.834050520215271, 9.977104225579581 ] } },
{ "type": "Feature", "properties": { "OBJECTID": 130, "Nombre_com": "DELICIAS DEL BOULEVAR", "Cantidad_l": 1.0, "Tipo": "Desocupado", "Patente_co": "Comercio", "Licencia": "N/A", "Número_de": 3237, "FINCA": "0009223", "IDENTIFICA": "60101000922300", "PLANO": "600026881971" }, "geometry": { "type": "Point", "coordinates": [ -84.833477924566523, 9.977889554059743 ] } },
{ "type": "Feature", "properties": { "OBJECTID": 131, "Nombre_com": "AUTO SERVICIOS LA ESQUINA", "Cantidad_l": 1.0, "Tipo": "Comercial", "Patente_co": "Comercio", "Licencia": "N/A", "Número_de": 6016, "FINCA": "0003491", "IDENTIFICA": "60101000349100", "PLANO": "613985972010" }, "geometry": { "type": "Point", "coordinates": [ -84.833549290267513, 9.977478211350444 ] } },
{ "type": "Feature", "properties": { "OBJECTID": 132, "Nombre_com": "BAZAR NURY", "Cantidad_l": 1.0, "Tipo": "Comercial", "Patente_co": "Comercio", "Licencia": "N/A", "Número_de": 2183, "FINCA": "0050991", "IDENTIFICA": "60101005099100", "PLANO": "606243441986" }, "geometry": { "type": "Point", "coordinates": [ -84.833450940408511, 9.977494993599123 ] } },
{ "type": "Feature", "properties": { "OBJECTID": 133, "Nombre_com": "COPIAS EXCLUSIVAS RONNY", "Cantidad_l": 2.0, "Tipo": "Comercial", "Patente_co": "Comercio", "Licencia": "N/A", "Número_de": 3396, "FINCA": "0008224", "IDENTIFICA": "60101000822400", "PLANO": "615651182012" }, "geometry": { "type": "Point", "coordinates": [ -84.833339059350067, 9.977474176092414 ] } },
{ "type": "Feature", "properties": { "OBJECTID": 134, "Nombre_com": "LAVACAR ACOSTA", "Cantidad_l": 2.0, "Tipo": "Comercial", "Patente_co": "Comercio", "Licencia": "N/A", "Número_de": 5236, "FINCA": "0026457", "IDENTIFICA": "60101002645700", "PLANO": "606078981985" }, "geometry": { "type": "Point", "coordinates": [ -84.833217215601962, 9.977453485390072 ] } },
{ "type": "Feature", "properties": { "OBJECTID": 135, "Nombre_com": "CASA DE LA HAMBURGUESA QUEENS", "Cantidad_l": 1.0, "Tipo": "Comercial", "Patente_co": "Comercio", "Licencia": "N/A", "Número_de": 3518, "FINCA": "0008405", "IDENTIFICA": "60101000840500", "PLANO": "600515281960" }, "geometry": { "type": "Point", "coordinates": [ -84.832943661620675, 9.977841948447235 ] } },
{ "type": "Feature", "properties": { "OBJECTID": 136, "Nombre_com": "TIENDA CAMPANITA", "Cantidad_l": 1.0, "Tipo": "Comercial", "Patente_co": "Comercio", "Licencia": "N/A", "Número_de": 3303, "FINCA": "0037688", "IDENTIFICA": "60101003768800", "PLANO": "604667251982" }, "geometry": { "type": "Point", "coordinates": [ -84.832925623019037, 9.977966294109251 ] } },
{ "type": "Feature", "properties": { "OBJECTID": 137, "Nombre_com": "EXCLUSIVIDADES JESSA", "Cantidad_l": 2.0, "Tipo": "Comercial", "Patente_co": "Comercio", "Licencia": "N/A", "Número_de": 5338, "FINCA": "0057392", "IDENTIFICA": "60101005739200", "PLANO": "603672201996" }, "geometry": { "type": "Point", "coordinates": [ -84.832872628668838, 9.978041769711979 ] } },
{ "type": "Feature", "properties": { "OBJECTID": 138, "Nombre_com": "BAZAR EL AMIGO FELIZ", "Cantidad_l": 1.0, "Tipo": "Comercial", "Patente_co": "Comercio", "Licencia": "N/A", "Número_de": 3247, "FINCA": "0057393", "IDENTIFICA": "60101005739300", "PLANO": "607208981987" }, "geometry": { "type": "Point", "coordinates": [ -84.832888488213143, 9.978153263162596 ] } },
{ "type": "Feature", "properties": { "OBJECTID": 139, "Nombre_com": "CARNES DE MI GRANJA", "Cantidad_l": 1.0, "Tipo": "Comercial", "Patente_co": "Comercio", "Licencia": "N/A", "Número_de": 3766, "FINCA": "0007733", "IDENTIFICA": "60101000773300", "PLANO": "607202151987" }, "geometry": { "type": "Point", "coordinates": [ -84.832865095947398, 9.978239659232941 ] } },
{ "type": "Feature", "properties": { "OBJECTID": 140, "Nombre_com": "POLLO LANDIA", "Cantidad_l": 2.0, "Tipo": "Comercial", "Patente_co": "Comercio", "Licencia": "N/A", "Número_de": 4984, "FINCA": "0002822", "IDENTIFICA": "60101000282200", "PLANO": "602479841995" }, "geometry": { "type": "Point", "coordinates": [ -84.832963036614785, 9.978213206574253 ] } },
{ "type": "Feature", "properties": { "OBJECTID": 141, "Nombre_com": "JOSEFINA RESTAURANTE Y CAFE", "Cantidad_l": 2.0, "Tipo": "Comercial", "Patente_co": "Comercio", "Licencia": "N/A", "Número_de": 5198, "FINCA": "0224291", "IDENTIFICA": "60101022429100", "PLANO": "606351942000" }, "geometry": { "type": "Point", "coordinates": [ -84.833050752889903, 9.978209542736238 ] } },
{ "type": "Feature", "properties": { "OBJECTID": 142, "Nombre_com": "CICLO GABY", "Cantidad_l": 1.0, "Tipo": "Comercial", "Patente_co": "Comercio", "Licencia": "N/A", "Número_de": 3313, "FINCA": "0009262", "IDENTIFICA": "60101000926200", "PLANO": "606415761986" }, "geometry": { "type": "Point", "coordinates": [ -84.833265962454163, 9.978206153191479 ] } },
{ "type": "Feature", "properties": { "OBJECTID": 143, "Nombre_com": "SALUD Y BELLEZA SUPER SALON", "Cantidad_l": 1.0, "Tipo": "Comercial", "Patente_co": "Comercio", "Licencia": "N/A", "Número_de": 3654, "FINCA": "0009510", "IDENTIFICA": "60101000951000", "PLANO": "606415751986" }, "geometry": { "type": "Point", "coordinates": [ -84.833327763865157, 9.978167690086877 ] } },
{ "type": "Feature", "properties": { "OBJECTID": 144, "Nombre_com": "RESTAURANTE CANTÓN", "Cantidad_l": 1.0, "Tipo": "Comercial", "Patente_co": "Comercio", "Licencia": "C", "Número_de": 3537, "FINCA": "0192337", "IDENTIFICA": "60101019233700", "PLANO": "615660642012" }, "geometry": { "type": "Point", "coordinates": [ -84.833582319668267, 9.978148480567995 ] } },
{ "type": "Feature", "properties": { "OBJECTID": 145, "Nombre_com": "SALA DE BELLEZA SERGIO", "Cantidad_l": 1.0, "Tipo": "Comercial", "Patente_co": "Comercio", "Licencia": "N/A", "Número_de": 484, "FINCA": "0005325", "IDENTIFICA": "60101000532500", "PLANO": "617985312015" }, "geometry": { "type": "Point", "coordinates": [ -84.832663491327025, 9.977771747368308 ] } },
{ "type": "Feature", "properties": { "OBJECTID": 146, "Nombre_com": "VETERINARIA RUDIN Y SALAZAR", "Cantidad_l": 1.0, "Tipo": "Comercial", "Patente_co": "Comercio", "Licencia": "N/A", "Número_de": 3718, "FINCA": "0004047", "IDENTIFICA": "60101000404700", "PLANO": "610780312006" }, "geometry": { "type": "Point", "coordinates": [ -84.832571472695292, 9.977830455111473 ] } },
{ "type": "Feature", "properties": { "OBJECTID": 147, "Nombre_com": "SODA GEN WONG", "Cantidad_l": 1.0, "Tipo": "Comercial", "Patente_co": "Comercio", "Licencia": "N/A", "Número_de": 2638, "FINCA": "0010043", "IDENTIFICA": "60101001004300", "PLANO": "612170182008" }, "geometry": { "type": "Point", "coordinates": [ -84.83504346978026, 9.977014507413628 ] } },
{ "type": "Feature", "properties": { "OBJECTID": 148, "Nombre_com": "SUPER Y LICORERA EL CACIQUE", "Cantidad_l": 1.0, "Tipo": "Ambas", "Patente_co": "Comercio", "Licencia": "A", "Número_de": 1742, "FINCA": "0017419", "IDENTIFICA": "60101001741900", "PLANO": "608941752003" }, "geometry": { "type": "Point", "coordinates": [ -84.835284304626896, 9.976605558699646 ] } },
{ "type": "Feature", "properties": { "OBJECTID": 149, "Nombre_com": "CABLETICA", "Cantidad_l": 2.0, "Tipo": "Comercial", "Patente_co": "Servicio", "Licencia": "N/A", "Número_de": 2778, "FINCA": "0003422", "IDENTIFICA": "60101000342200", "PLANO": "603953581980" }, "geometry": { "type": "Point", "coordinates": [ -84.833964018924291, 9.977137953753584 ] } },
{ "type": "Feature", "properties": { "OBJECTID": 150, "Nombre_com": "LA CASA DEL HELADO #3", "Cantidad_l": 1.0, "Tipo": "Comercial", "Patente_co": "Comercio", "Licencia": "N/A", "Número_de": 4265, "FINCA": "0007739", "IDENTIFICA": "60101000773900", "PLANO": "606517142000" }, "geometry": { "type": "Point", "coordinates": [ -84.834955490903155, 9.975309677899361 ] } },
{ "type": "Feature", "properties": { "OBJECTID": 151, "Nombre_com": " ", "Cantidad_l": 1.0, "Tipo": "Comercial", "Patente_co": "Servicio", "Licencia": "N/A", "Número_de": 0, "FINCA": "0003673", "IDENTIFICA": "60101000367300", "PLANO": "600049701968" }, "geometry": { "type": "Point", "coordinates": [ -84.8345756172709, 9.976621466807273 ] } },
{ "type": "Feature", "properties": { "OBJECTID": 152, "Nombre_com": "RESTAURANTE EL CEVICHITO", "Cantidad_l": 1.0, "Tipo": "Ambas", "Patente_co": "Comercio", "Licencia": "C", "Número_de": 3003, "FINCA": "0010148", "IDENTIFICA": "60101001014800", "PLANO": "601197751993" }, "geometry": { "type": "Point", "coordinates": [ -84.833723194869492, 9.976146938630336 ] } },
{ "type": "Feature", "properties": { "OBJECTID": 153, "Nombre_com": "CUP", "Cantidad_l": 1.0, "Tipo": "Comercial", "Patente_co": "Comercio", "Licencia": "N/A", "Número_de": 3643, "FINCA": "0005959", "IDENTIFICA": "60101000595900", "PLANO": "600004061985" }, "geometry": { "type": "Point", "coordinates": [ -84.833129428280472, 9.975672278253114 ] } },
{ "type": "Feature", "properties": { "OBJECTID": 154, "Nombre_com": "CAFE Y CREPERIA JOTA", "Cantidad_l": 1.0, "Tipo": "Comercial", "Patente_co": "Comercio", "Licencia": "N/A", "Número_de": 3508, "FINCA": "0011441", "IDENTIFICA": "60101001144100", "PLANO": "600122841972" }, "geometry": { "type": "Point", "coordinates": [ -84.833523802581396, 9.976960189261376 ] } },
{ "type": "Feature", "properties": { "OBJECTID": 155, "Nombre_com": "BANCO DAVIVIENDA", "Cantidad_l": 2.0, "Tipo": "Comercial", "Patente_co": "Servicio", "Licencia": "N/A", "Número_de": 2816, "FINCA": "0003020", "IDENTIFICA": "60101000302000", "PLANO": "606070652000" }, "geometry": { "type": "Point", "coordinates": [ -84.83283370690998, 9.977230639682318 ] } },
{ "type": "Feature", "properties": { "OBJECTID": 156, "Nombre_com": "TARPON NATION FISHING S.A", "Cantidad_l": 2.0, "Tipo": "Desocupado", "Patente_co": "Comercio", "Licencia": "N/A", "Número_de": 5365, "FINCA": "0003020", "IDENTIFICA": "60101000302000", "PLANO": "606070652000" }, "geometry": { "type": "Point", "coordinates": [ -84.832938516599199, 9.97722784189142 ] } },
{ "type": "Feature", "properties": { "OBJECTID": 157, "Nombre_com": "KISSME FASHION", "Cantidad_l": 1.0, "Tipo": "Comercial", "Patente_co": "Comercio", "Licencia": "N/A", "Número_de": 831, "FINCA": "0003754", "IDENTIFICA": "60101000375400", "PLANO": "606196492000" }, "geometry": { "type": "Point", "coordinates": [ -84.832935790754107, 9.976997741352704 ] } },
{ "type": "Feature", "properties": { "OBJECTID": 158, "Nombre_com": "CABINAS GOSEN", "Cantidad_l": 1.0, "Tipo": "Comercial", "Patente_co": "Servicio", "Licencia": "N/A", "Número_de": 2218, "FINCA": "0003754", "IDENTIFICA": "60101000375400", "PLANO": "606196492000" }, "geometry": { "type": "Point", "coordinates": [ -84.832803662359083, 9.977014008289927 ] } },
{ "type": "Feature", "properties": { "OBJECTID": 159, "Nombre_com": "CABINAS YOLY MAR", "Cantidad_l": 1.0, "Tipo": "Comercial", "Patente_co": "Servicio", "Licencia": "N/A", "Número_de": 4181, "FINCA": "0011441", "IDENTIFICA": "60101001144100", "PLANO": "600122841972" }, "geometry": { "type": "Point", "coordinates": [ -84.833364652256876, 9.976967445890978 ] } },
{ "type": "Feature", "properties": { "OBJECTID": 160, "Nombre_com": "SODA LA NEGRITA", "Cantidad_l": 1.0, "Tipo": "Comercial", "Patente_co": "Servicio", "Licencia": "N/A", "Número_de": 4539, "FINCA": "0003045", "IDENTIFICA": "60101000304500", "PLANO": "600060062022" }, "geometry": { "type": "Point", "coordinates": [ -84.832599660146172, 9.977254109289788 ] } },
{ "type": "Feature", "properties": { "OBJECTID": 161, "Nombre_com": "RESTAURANTE  EL PRIMERO", "Cantidad_l": 1.0, "Tipo": "Comercial", "Patente_co": "Servicio", "Licencia": "C", "Número_de": 2634, "FINCA": "0004213", "IDENTIFICA": "60101000421300", "PLANO": "600016111966" }, "geometry": { "type": "Point", "coordinates": [ -84.831846659595612, 9.977276461939198 ] } },
{ "type": "Feature", "properties": { "OBJECTID": 162, "Nombre_com": "CENTRO DE BELLEZA LOS DOMINICANOS", "Cantidad_l": 2.0, "Tipo": "Comercial", "Patente_co": "Servicio", "Licencia": "N/A", "Número_de": 2639, "FINCA": "0009336", "IDENTIFICA": "60101000933600", "PLANO": "600514221960" }, "geometry": { "type": "Point", "coordinates": [ -84.831839410160626, 9.977088742851265 ] } },
{ "type": "Feature", "properties": { "OBJECTID": 163, "Nombre_com": "POOL DEL PUERTO", "Cantidad_l": 1.0, "Tipo": "Comercial", "Patente_co": "Comercio", "Licencia": "N/A", "Número_de": 3484, "FINCA": "0012770", "IDENTIFICA": "60101001277000", "PLANO": "600526421962" }, "geometry": { "type": "Point", "coordinates": [ -84.831817339898294, 9.976744236857087 ] } },
{ "type": "Feature", "properties": { "OBJECTID": 164, "Nombre_com": "RESTAURANTE SAN MIGUEL ARCANGEL #2", "Cantidad_l": 1.0, "Tipo": "Comercial", "Patente_co": "Comercio", "Licencia": "C", "Número_de": 5665, "FINCA": "0008038", "IDENTIFICA": "60101000803800", "PLANO": "604359571997" }, "geometry": { "type": "Point", "coordinates": [ -84.83177863127878, 9.976248448706997 ] } },
{ "type": "Feature", "properties": { "OBJECTID": 165, "Nombre_com": "CEVICHE LA TROCHA", "Cantidad_l": 1.0, "Tipo": "Comercial", "Patente_co": "Servicio", "Licencia": "N/A", "Número_de": 1126, "FINCA": "0025958", "IDENTIFICA": "60101002595800", "PLANO": "613857242009" }, "geometry": { "type": "Point", "coordinates": [ -84.832045689456947, 9.97654791485445 ] } },
{ "type": "Feature", "properties": { "OBJECTID": 166, "Nombre_com": "TRANSPORTES QUEPOS PUNTARENAS S.A", "Cantidad_l": 1.0, "Tipo": "Comercial", "Patente_co": "Servicio", "Licencia": "N/A", "Número_de": 2896, "FINCA": "0020875", "IDENTIFICA": "60101002087500", "PLANO": "600143231976" }, "geometry": { "type": "Point", "coordinates": [ -84.832509460842914, 9.976130749034894 ] } },
{ "type": "Feature", "properties": { "OBJECTID": 167, "Nombre_com": "KIOSKO EL SESTEO", "Cantidad_l": 1.0, "Tipo": "Comercial", "Patente_co": "Servicio", "Licencia": "N/A", "Número_de": 1921, "FINCA": "0ZM0023", "IDENTIFICA": "601010ZM002300", "PLANO": "612473962007" }, "geometry": { "type": "Point", "coordinates": [ -84.832747110290882, 9.975181593755622 ] } },
{ "type": "Feature", "properties": { "OBJECTID": 168, "Nombre_com": "KIOSKO COSTA AZUL", "Cantidad_l": 1.0, "Tipo": "Comercial", "Patente_co": "Servicio", "Licencia": "N/A", "Número_de": 2209, "FINCA": "P000327", "IDENTIFICA": "60101P00032700", "PLANO": "612473912007" }, "geometry": { "type": "Point", "coordinates": [ -84.832571301824089, 9.97523569427193 ] } },
{ "type": "Feature", "properties": { "OBJECTID": 169, "Nombre_com": "KIOSKO ACAPULCO", "Cantidad_l": 1.0, "Tipo": "Comercial", "Patente_co": "Servicio", "Licencia": "N/A", "Número_de": 3221, "FINCA": "0ZM0025", "IDENTIFICA": "601010ZM002500", "PLANO": "612475572007" }, "geometry": { "type": "Point", "coordinates": [ -84.832417869389133, 9.975234761674983 ] } },
{ "type": "Feature", "properties": { "OBJECTID": 170, "Nombre_com": "KIOSKO RIO JANEIRO", "Cantidad_l": 1.0, "Tipo": "Comercial", "Patente_co": "Servicio", "Licencia": "N/A", "Número_de": 3416, "FINCA": "0ZM0026", "IDENTIFICA": "601010ZM002600", "PLANO": "611279182007" }, "geometry": { "type": "Point", "coordinates": [ -84.8322631257426, 9.975245436627631 ] } },
{ "type": "Feature", "properties": { "OBJECTID": 171, "Nombre_com": "SODA RANCHO GRANDE", "Cantidad_l": 1.0, "Tipo": "Comercial", "Patente_co": "Servicio", "Licencia": "N/A", "Número_de": 2029, "FINCA": "0ZM0027", "IDENTIFICA": "601010ZM002700", "PLANO": "611512092007" }, "geometry": { "type": "Point", "coordinates": [ -84.832106561868272, 9.975252397380302 ] } },
{ "type": "Feature", "properties": { "OBJECTID": 172, "Nombre_com": "KIOSKO MAR DEL PLATA", "Cantidad_l": 1.0, "Tipo": "Comercial", "Patente_co": "Servicio", "Licencia": "N/A", "Número_de": 2251, "FINCA": "P000323", "IDENTIFICA": "60101P00032300", "PLANO": "611512072007" }, "geometry": { "type": "Point", "coordinates": [ -84.831915801273169, 9.975263493215664 ] } },
{ "type": "Feature", "properties": { "OBJECTID": 173, "Nombre_com": "BAR IMPERIAL", "Cantidad_l": 1.0, "Tipo": "Comercial", "Patente_co": "Servicio", "Licencia": "C", "Número_de": 2175, "FINCA": "0004559", "IDENTIFICA": "60101000455900", "PLANO": "608064752002" }, "geometry": { "type": "Point", "coordinates": [ -84.831439728960277, 9.975750998609726 ] } },
{ "type": "Feature", "properties": { "OBJECTID": 174, "Nombre_com": "MINISUPER Y LICORERA PUNTARENAS", "Cantidad_l": 1.0, "Tipo": "Comercial", "Patente_co": "Comercio", "Licencia": "A", "Número_de": 5200, "FINCA": "0004559", "IDENTIFICA": "60101000455900", "PLANO": "608064752002" }, "geometry": { "type": "Point", "coordinates": [ -84.831328712150309, 9.975737576228198 ] } },
{ "type": "Feature", "properties": { "OBJECTID": 175, "Nombre_com": " ", "Cantidad_l": 0.0, "Tipo": "Desocupado", "Patente_co": " ", "Licencia": " ", "Número_de": 0, "FINCA": "0004559", "IDENTIFICA": "60101000455900", "PLANO": "608064752002" }, "geometry": { "type": "Point", "coordinates": [ -84.831238156715528, 9.975742250904204 ] } },
{ "type": "Feature", "properties": { "OBJECTID": 176, "Nombre_com": "SODA Y HELADERIA EL DELEITE", "Cantidad_l": 1.0, "Tipo": "Comercial", "Patente_co": "Servicio", "Licencia": "N/A", "Número_de": 4786, "FINCA": "0004559", "IDENTIFICA": "60101000455900", "PLANO": "608064752002" }, "geometry": { "type": "Point", "coordinates": [ -84.831120317648526, 9.975769556120156 ] } },
{ "type": "Feature", "properties": { "OBJECTID": 177, "Nombre_com": "SODA LA MACARENA", "Cantidad_l": 1.0, "Tipo": "Comercial", "Patente_co": "Servicio", "Licencia": "N/A", "Número_de": 5323, "FINCA": "0009925", "IDENTIFICA": "60101000992500", "PLANO": "600053201964" }, "geometry": { "type": "Point", "coordinates": [ -84.831035874905638, 9.975779115913497 ] } },
{ "type": "Feature", "properties": { "OBJECTID": 178, "Nombre_com": "SODA EL CRUCERO", "Cantidad_l": 1.0, "Tipo": "Comercial", "Patente_co": "Servicio", "Licencia": "N/A", "Número_de": 2016, "FINCA": "0010912", "IDENTIFICA": "60101001091200", "PLANO": "600053471964" }, "geometry": { "type": "Point", "coordinates": [ -84.830764546746423, 9.975832819828838 ] } },
{ "type": "Feature", "properties": { "OBJECTID": 179, "Nombre_com": "SODA TICOMIDAS Y MARISCOS", "Cantidad_l": 1.0, "Tipo": "Comercial", "Patente_co": "Servicio", "Licencia": "N/A", "Número_de": 4179, "FINCA": "0003466", "IDENTIFICA": "601010003466B0", "PLANO": "600053171964" }, "geometry": { "type": "Point", "coordinates": [ -84.830796902554994, 9.976438301886162 ] } },
{ "type": "Feature", "properties": { "OBJECTID": 180, "Nombre_com": " ", "Cantidad_l": 1.0, "Tipo": "Comercial", "Patente_co": "Servicio", "Licencia": "N/A", "Número_de": 0, "FINCA": "0002920", "IDENTIFICA": "60101000292000", "PLANO": "607408421988" }, "geometry": { "type": "Point", "coordinates": [ -84.834074810004438, 9.975493497526941 ] } },
{ "type": "Feature", "properties": { "OBJECTID": 181, "Nombre_com": "RESTAURANTE CASA ALDEA", "Cantidad_l": 1.0, "Tipo": "Comercial", "Patente_co": "Servicio", "Licencia": "C", "Número_de": 4709, "FINCA": "0178201", "IDENTIFICA": "60101017820100", "PLANO": "614269492010" }, "geometry": { "type": "Point", "coordinates": [ -84.835549204432198, 9.975317600027267 ] } },
{ "type": "Feature", "properties": { "OBJECTID": 182, "Nombre_com": "LITOGRAFÍA A&G", "Cantidad_l": 1.0, "Tipo": "Comercial", "Patente_co": "Comercio", "Licencia": "N/A", "Número_de": 2925, "FINCA": "0014955", "IDENTIFICA": "60101001495500", "PLANO": "607281341988" }, "geometry": { "type": "Point", "coordinates": [ -84.832565849234527, 9.977887366009156 ] } },
{ "type": "Feature", "properties": { "OBJECTID": 183, "Nombre_com": "COMPRA Y VENTA DON MANUEL", "Cantidad_l": 1.0, "Tipo": "Comercial", "Patente_co": "Comercio", "Licencia": "N/A", "Número_de": 3383, "FINCA": "0011026", "IDENTIFICA": "60101001102600", "PLANO": "602942921977" }, "geometry": { "type": "Point", "coordinates": [ -84.832513679562624, 9.978014014834969 ] } },
{ "type": "Feature", "properties": { "OBJECTID": 184, "Nombre_com": "ESTILOS FASHION", "Cantidad_l": 1.0, "Tipo": "Comercial", "Patente_co": "Comercio", "Licencia": "N/A", "Número_de": 2461, "FINCA": "0002861", "IDENTIFICA": "601010002861A0", "PLANO": "602793771995" }, "geometry": { "type": "Point", "coordinates": [ -84.832612505162956, 9.978064000053621 ] } },
{ "type": "Feature", "properties": { "OBJECTID": 185, "Nombre_com": "ÓPTICA ECONÓMICA", "Cantidad_l": 1.0, "Tipo": "Comercial", "Patente_co": "Comercio", "Licencia": "N/A", "Número_de": 3786, "FINCA": "0164499", "IDENTIFICA": "60101016449900", "PLANO": "606183672000" }, "geometry": { "type": "Point", "coordinates": [ -84.832600855345163, 9.978153110277844 ] } },
{ "type": "Feature", "properties": { "OBJECTID": 186, "Nombre_com": "TIENDA KALINA", "Cantidad_l": 1.0, "Tipo": "Comercial", "Patente_co": "Comercio", "Licencia": "N/A", "Número_de": 4648, "FINCA": "0164500", "IDENTIFICA": "60101016450000", "PLANO": "606183662000" }, "geometry": { "type": "Point", "coordinates": [ -84.832612249755471, 9.978266279165496 ] } },
{ "type": "Feature", "properties": { "OBJECTID": 187, "Nombre_com": "KOLBI", "Cantidad_l": 2.0, "Tipo": "Desocupado", "Patente_co": "Comercio", "Licencia": "N/A", "Número_de": 3854, "FINCA": "0005239", "IDENTIFICA": "60101000523900", "PLANO": "601839561994" }, "geometry": { "type": "Point", "coordinates": [ -84.832507144189321, 9.97828331682166 ] } },
{ "type": "Feature", "properties": { "OBJECTID": 188, "Nombre_com": "ALMACÉN PUERTO LIBRE", "Cantidad_l": 1.0, "Tipo": "Comercial", "Patente_co": "Comercio", "Licencia": "N/A", "Número_de": 1904, "FINCA": "0002663", "IDENTIFICA": "60101000266300", "PLANO": "605453081984" }, "geometry": { "type": "Point", "coordinates": [ -84.832401552989268, 9.978291151715325 ] } },
{ "type": "Feature", "properties": { "OBJECTID": 189, "Nombre_com": "CLINICA STUDIO VISUAL", "Cantidad_l": 2.0, "Tipo": "Comercial", "Patente_co": "Comercio", "Licencia": "N/A", "Número_de": 5389, "FINCA": "0169884", "IDENTIFICA": "60101016988400", "PLANO": "612540172008" }, "geometry": { "type": "Point", "coordinates": [ -84.832297378221369, 9.978310179571167 ] } },
{ "type": "Feature", "properties": { "OBJECTID": 190, "Nombre_com": "TIENDA Y ZAPATERÍA BY KALUVA", "Cantidad_l": 1.0, "Tipo": "Desocupado", "Patente_co": "Comercio", "Licencia": "N/A", "Número_de": 0, "FINCA": "0070535", "IDENTIFICA": "60101007053500", "PLANO": "607134141987" }, "geometry": { "type": "Point", "coordinates": [ -84.832112758197184, 9.978222766367651 ] } },
{ "type": "Feature", "properties": { "OBJECTID": 191, "Nombre_com": "FERRETERIA EL CAMPEÓN", "Cantidad_l": 1.0, "Tipo": "Comercial", "Patente_co": "Comercio", "Licencia": "N/A", "Número_de": 3768, "FINCA": "0009473", "IDENTIFICA": "60101000947300", "PLANO": "600052891967" }, "geometry": { "type": "Point", "coordinates": [ -84.832036558640254, 9.978357775291158 ] } },
{ "type": "Feature", "properties": { "OBJECTID": 192, "Nombre_com": "POPS", "Cantidad_l": 3.0, "Tipo": "Comercial", "Patente_co": "Comercio", "Licencia": "N/A", "Número_de": 3653, "FINCA": "0009472", "IDENTIFICA": "60101000947200", "PLANO": "603600521996" }, "geometry": { "type": "Point", "coordinates": [ -84.831927891758767, 9.978338951581406 ] } },
{ "type": "Feature", "properties": { "OBJECTID": 193, "Nombre_com": "ALEXA ESTILOS", "Cantidad_l": 3.0, "Tipo": "Comercial", "Patente_co": "Comercio", "Licencia": "N/A", "Número_de": 3500, "FINCA": "0009472", "IDENTIFICA": "60101000947200", "PLANO": "603600521996" }, "geometry": { "type": "Point", "coordinates": [ -84.83188896820127, 9.978249147080533 ] } },
{ "type": "Feature", "properties": { "OBJECTID": 194, "Nombre_com": "TIENDA DK", "Cantidad_l": 3.0, "Tipo": "Desocupado", "Patente_co": "Comercio", "Licencia": "N/A", "Número_de": 0, "FINCA": "0009472", "IDENTIFICA": "60101000947200", "PLANO": "603600521996" }, "geometry": { "type": "Point", "coordinates": [ -84.831923502167854, 9.978207156834856 ] } },
{ "type": "Feature", "properties": { "OBJECTID": 195, "Nombre_com": "FOTO SALAZAR", "Cantidad_l": 1.0, "Tipo": "Comercial", "Patente_co": "Comercio", "Licencia": "N/A", "Número_de": 3376, "FINCA": "0004778", "IDENTIFICA": "60101000477800", "PLANO": "600207161975" }, "geometry": { "type": "Point", "coordinates": [ -84.831933445072423, 9.978111468069869 ] } },
{ "type": "Feature", "properties": { "OBJECTID": 196, "Nombre_com": "FERRETERIA PUNTARENAS", "Cantidad_l": 2.0, "Tipo": "Comercial", "Patente_co": "Comercio", "Licencia": "N/A", "Número_de": 5264, "FINCA": "0004370", "IDENTIFICA": "60101000437000", "PLANO": "604884691998" }, "geometry": { "type": "Point", "coordinates": [ -84.832172397637976, 9.977231173879602 ] } },
{ "type": "Feature", "properties": { "OBJECTID": 197, "Nombre_com": "BAR HOTEL MIRAMAR", "Cantidad_l": 2.0, "Tipo": "Comercial", "Patente_co": "Comercio", "Licencia": "N/A", "Número_de": 4470, "FINCA": "0005461", "IDENTIFICA": "60101000546100", "PLANO": "604533661981" }, "geometry": { "type": "Point", "coordinates": [ -84.831880432735773, 9.977927037802601 ] } },
{ "type": "Feature", "properties": { "OBJECTID": 198, "Nombre_com": "BAR FORTUNA", "Cantidad_l": 2.0, "Tipo": "Comercial", "Patente_co": "Comercio", "Licencia": "B1", "Número_de": 4518, "FINCA": "0002646", "IDENTIFICA": "60101000264600", "PLANO": "600119301951" }, "geometry": { "type": "Point", "coordinates": [ -84.831889916086709, 9.977846096120516 ] } },
{ "type": "Feature", "properties": { "OBJECTID": 199, "Nombre_com": "SODA EL DESORDEN", "Cantidad_l": 1.0, "Tipo": "Comercial", "Patente_co": "Servicio", "Licencia": "N/A", "Número_de": 1222, "FINCA": "0002862", "IDENTIFICA": "60101000286200", "PLANO": "600120391973" }, "geometry": { "type": "Point", "coordinates": [ -84.831535034614092, 9.976594248825563 ] } },
{ "type": "Feature", "properties": { "OBJECTID": 200, "Nombre_com": "ÓPTICA Y OFTALMOLOGÍA OPTISOL", "Cantidad_l": 1.0, "Tipo": "Comercial", "Patente_co": "Comercio", "Licencia": "N/A", "Número_de": 3859, "FINCA": "0019378", "IDENTIFICA": "60101001937800", "PLANO": "605917481985" }, "geometry": { "type": "Point", "coordinates": [ -84.831521747130864, 9.977377816433147 ] } },
{ "type": "Feature", "properties": { "OBJECTID": 201, "Nombre_com": "PRETTY WOMAN", "Cantidad_l": 1.0, "Tipo": "Comercial", "Patente_co": "Comercio", "Licencia": "N/A", "Número_de": 3748, "FINCA": "0019378", "IDENTIFICA": "60101001937800", "PLANO": "605917481985" }, "geometry": { "type": "Point", "coordinates": [ -84.831468321106115, 9.977377935143636 ] } },
{ "type": "Feature", "properties": { "OBJECTID": 202, "Nombre_com": "COMERCIALIZADORA EL MANDARIN", "Cantidad_l": 1.0, "Tipo": "Comercial", "Patente_co": "Comercio", "Licencia": "N/A", "Número_de": 1152, "FINCA": "0005566", "IDENTIFICA": "60101000556600", "PLANO": "607738891988" }, "geometry": { "type": "Point", "coordinates": [ -84.83132857275541, 9.977371933967618 ] } },
{ "type": "Feature", "properties": { "OBJECTID": 203, "Nombre_com": "MARISQUERIA DONDE CHUMI", "Cantidad_l": 1.0, "Tipo": "Comercial", "Patente_co": "Servicio", "Licencia": "N/A", "Número_de": 5076, "FINCA": "0010541", "IDENTIFICA": "60101001054100", "PLANO": "606949521987" }, "geometry": { "type": "Point", "coordinates": [ -84.831240655931481, 9.97722842195418 ] } },
{ "type": "Feature", "properties": { "OBJECTID": 204, "Nombre_com": "ALMACEN EL QUINCE", "Cantidad_l": 1.0, "Tipo": "Comercial", "Patente_co": "Comercio", "Licencia": "N/A", "Número_de": 1676, "FINCA": "0146051", "IDENTIFICA": "60101014605100", "PLANO": "607508052001" }, "geometry": { "type": "Point", "coordinates": [ -84.830249721747236, 9.979476329569025 ] } },
{ "type": "Feature", "properties": { "OBJECTID": 205, "Nombre_com": "TIENDA GOLLO", "Cantidad_l": 1.0, "Tipo": "Comercial", "Patente_co": "Comercio", "Licencia": "N/A", "Número_de": 3676, "FINCA": "0007504", "IDENTIFICA": "60101000750400", "PLANO": "600036671965" }, "geometry": { "type": "Point", "coordinates": [ -84.831745426510167, 9.979725429185237 ] } },
{ "type": "Feature", "properties": { "OBJECTID": 206, "Nombre_com": "HOTEL RIO", "Cantidad_l": 1.0, "Tipo": "Comercial", "Patente_co": "Servicio", "Licencia": "N/A", "Número_de": 2800, "FINCA": "0010882", "IDENTIFICA": "60101001088200", "PLANO": "605031631998" }, "geometry": { "type": "Point", "coordinates": [ -84.831609399554111, 9.980073100792993 ] } },
{ "type": "Feature", "properties": { "OBJECTID": 207, "Nombre_com": "TIENDA AGAPE", "Cantidad_l": 1.0, "Tipo": "Comercial", "Patente_co": "Comercio", "Licencia": "N/A", "Número_de": 1977, "FINCA": "0010880", "IDENTIFICA": "60101001088000", "PLANO": "600330711977" }, "geometry": { "type": "Point", "coordinates": [ -84.831571596551896, 9.979825686506274 ] } },
{ "type": "Feature", "properties": { "OBJECTID": 208, "Nombre_com": "SUPER Y CARNICERÍA LA MARAVILLA", "Cantidad_l": 1.0, "Tipo": "Comercial", "Patente_co": "Comercio", "Licencia": "N/A", "Número_de": 3784, "FINCA": "0042274", "IDENTIFICA": "60101004227400", "PLANO": "608038711989" }, "geometry": { "type": "Point", "coordinates": [ -84.831358930270369, 9.979866645229549 ] } },
{ "type": "Feature", "properties": { "OBJECTID": 209, "Nombre_com": "LA VICTORIA", "Cantidad_l": 1.0, "Tipo": "Comercial", "Patente_co": "Comercio", "Licencia": "N/A", "Número_de": 2133, "FINCA": "P000306", "IDENTIFICA": "60101P00030600", "PLANO": " " }, "geometry": { "type": "Point", "coordinates": [ -84.831281077759513, 9.979875417216761 ] } },
{ "type": "Feature", "properties": { "OBJECTID": 210, "Nombre_com": "MARISCOS PITO #2", "Cantidad_l": 2.0, "Tipo": "Comercial", "Patente_co": "Comercio", "Licencia": "N/A", "Número_de": 5699, "FINCA": "0012832", "IDENTIFICA": "60101001283200", "PLANO": "613691312009" }, "geometry": { "type": "Point", "coordinates": [ -84.831299761174989, 9.979963409583718 ] } },
{ "type": "Feature", "properties": { "OBJECTID": 211, "Nombre_com": "PESCADERÍA PEÑAMAR", "Cantidad_l": 4.0, "Tipo": "Comercial", "Patente_co": "Comercio", "Licencia": "N/A", "Número_de": 2182, "FINCA": "0010858", "IDENTIFICA": "60101001085800", "PLANO": "613691302009" }, "geometry": { "type": "Point", "coordinates": [ -84.831344804618993, 9.980137094751171 ] } },
{ "type": "Feature", "properties": { "OBJECTID": 212, "Nombre_com": "PESCADERÍA ALTAMAR", "Cantidad_l": 1.0, "Tipo": "Comercial", "Patente_co": "Comercio", "Licencia": "N/A", "Número_de": 0, "FINCA": "0082606", "IDENTIFICA": "60101008260600", "PLANO": "609795541991" }, "geometry": { "type": "Point", "coordinates": [ -84.830435053135147, 9.979579629296495 ] } },
{ "type": "Feature", "properties": { "OBJECTID": 213, "Nombre_com": "RICO HIELO", "Cantidad_l": 1.0, "Tipo": "Comercial", "Patente_co": "Comercio", "Licencia": "N/A", "Número_de": 3681, "FINCA": "0008113", "IDENTIFICA": "60101000811300", "PLANO": "616513352013" }, "geometry": { "type": "Point", "coordinates": [ -84.831514681157557, 9.980402040421893 ] } },
{ "type": "Feature", "properties": { "OBJECTID": 214, "Nombre_com": "RECIBIDOR LOS BAMBANES", "Cantidad_l": 1.0, "Tipo": "Comercial", "Patente_co": "Comercio", "Licencia": "N/A", "Número_de": 5874, "FINCA": "0157896", "IDENTIFICA": "60101015789600", "PLANO": "612391692007" }, "geometry": { "type": "Point", "coordinates": [ -84.830516233137587, 9.980267878659731 ] } },
{ "type": "Feature", "properties": { "OBJECTID": 215, "Nombre_com": "MARISCOS SEGURA", "Cantidad_l": 1.0, "Tipo": "Comercial", "Patente_co": "Comercio", "Licencia": "N/A", "Número_de": 3277, "FINCA": "0147977", "IDENTIFICA": "60101014797700", "PLANO": "606004701999" }, "geometry": { "type": "Point", "coordinates": [ -84.830500284560458, 9.980193764630599 ] } },
{ "type": "Feature", "properties": { "OBJECTID": 216, "Nombre_com": "MARISCOS GIBE", "Cantidad_l": 2.0, "Tipo": "Comercial", "Patente_co": "Comercio", "Licencia": "N/A", "Número_de": 5265, "FINCA": "0099760", "IDENTIFICA": "60101009976000", "PLANO": "603419091996" }, "geometry": { "type": "Point", "coordinates": [ -84.830486107647687, 9.979980449038521 ] } },
{ "type": "Feature", "properties": { "OBJECTID": 217, "Nombre_com": "MAQUINITAS LA FORTUNA", "Cantidad_l": 1.0, "Tipo": "Comercial", "Patente_co": "Comercio", "Licencia": "N/A", "Número_de": 0, "FINCA": "0016233", "IDENTIFICA": "60101001623300", "PLANO": "613852332009" }, "geometry": { "type": "Point", "coordinates": [ -84.831890434995557, 9.977684481653569 ] } },
{ "type": "Feature", "properties": { "OBJECTID": 218, "Nombre_com": "SALA DE BELLEZA MALE", "Cantidad_l": 1.0, "Tipo": "Comercial", "Patente_co": "Comercio", "Licencia": "N/A", "Número_de": 3590, "FINCA": "0016231", "IDENTIFICA": "60101001623100", "PLANO": "600338201977" }, "geometry": { "type": "Point", "coordinates": [ -84.831902478716358, 9.977645166890966 ] } },
{ "type": "Feature", "properties": { "OBJECTID": 219, "Nombre_com": "ALMACÉN 1+1", "Cantidad_l": 1.0, "Tipo": "Comercial", "Patente_co": "Comercio", "Licencia": "N/A", "Número_de": 3827, "FINCA": "0005510", "IDENTIFICA": "60101000551000", "PLANO": "605508991984" }, "geometry": { "type": "Point", "coordinates": [ -84.831610877140236, 9.977873546127284 ] } },
{ "type": "Feature", "properties": { "OBJECTID": 220, "Nombre_com": "CLARO", "Cantidad_l": 1.0, "Tipo": "Comercial", "Patente_co": "Comercio", "Licencia": "N/A", "Número_de": 4884, "FINCA": "0003437", "IDENTIFICA": "60101000343700", "PLANO": "603556071979" }, "geometry": { "type": "Point", "coordinates": [ -84.831619734563048, 9.978086019054558 ] } },
{ "type": "Feature", "properties": { "OBJECTID": 221, "Nombre_com": "ÓPTICA VISIÓN", "Cantidad_l": 1.0, "Tipo": "Comercial", "Patente_co": "Comercio", "Licencia": "N/A", "Número_de": 3760, "FINCA": "0036897", "IDENTIFICA": "60101003689700", "PLANO": "603550411979" }, "geometry": { "type": "Point", "coordinates": [ -84.831627420169241, 9.978172930436415 ] } },
{ "type": "Feature", "properties": { "OBJECTID": 222, "Nombre_com": "BARCO PIRATA", "Cantidad_l": 3.0, "Tipo": "Comercial", "Patente_co": "Comercio", "Licencia": "N/A", "Número_de": 3778, "FINCA": "0058912", "IDENTIFICA": "60101005891200", "PLANO": "606251011986" }, "geometry": { "type": "Point", "coordinates": [ -84.83165946481239, 9.978236632114942 ] } },
{ "type": "Feature", "properties": { "OBJECTID": 223, "Nombre_com": "RESTAURANTE HONG TU", "Cantidad_l": 1.0, "Tipo": "Ambas", "Patente_co": "Comercio", "Licencia": "E2", "Número_de": 3842, "FINCA": "0034765", "IDENTIFICA": "60101003476500", "PLANO": "603432601979" }, "geometry": { "type": "Point", "coordinates": [ -84.831568831136622, 9.978378526248036 ] } },
{ "type": "Feature", "properties": { "OBJECTID": 224, "Nombre_com": "MATEREF S.A", "Cantidad_l": 2.0, "Tipo": "Comercial", "Patente_co": "Comercio", "Licencia": "N/A", "Número_de": 3664, "FINCA": "0094351", "IDENTIFICA": "60101009435100", "PLANO": "607431391988" }, "geometry": { "type": "Point", "coordinates": [ -84.831451905780796, 9.978351965670754 ] } },
{ "type": "Feature", "properties": { "OBJECTID": 225, "Nombre_com": "SODA MATILDE (LA VENTANITA)", "Cantidad_l": 1.0, "Tipo": "Comercial", "Patente_co": "Comercio", "Licencia": "N/A", "Número_de": 2124, "FINCA": "0094351", "IDENTIFICA": "60101009435100", "PLANO": "607431391988" }, "geometry": { "type": "Point", "coordinates": [ -84.831457764863899, 9.978401978768375 ] } },
{ "type": "Feature", "properties": { "OBJECTID": 226, "Nombre_com": "MINI SUPER PURA VIDA #2", "Cantidad_l": 1.0, "Tipo": "Comercial", "Patente_co": "Comercio", "Licencia": "N/A", "Número_de": 5497, "FINCA": "0087841", "IDENTIFICA": "60101008784100", "PLANO": "607431381988" }, "geometry": { "type": "Point", "coordinates": [ -84.83125179583368, 9.978423834992043 ] } },
{ "type": "Feature", "properties": { "OBJECTID": 227, "Nombre_com": "SALA DE JUEGOS PUNTARENAS", "Cantidad_l": 1.0, "Tipo": "Comercial", "Patente_co": "Comercio", "Licencia": "N/A", "Número_de": 0, "FINCA": "0068150", "IDENTIFICA": "60101006815000", "PLANO": "607431341988" }, "geometry": { "type": "Point", "coordinates": [ -84.831190615854212, 9.978401958083964 ] } },
{ "type": "Feature", "properties": { "OBJECTID": 228, "Nombre_com": "PORTÓN VERDE", "Cantidad_l": 1.0, "Tipo": "Comercial", "Patente_co": "Comercio", "Licencia": "N/A", "Número_de": 4577, "FINCA": "0109428", "IDENTIFICA": "60101010942800", "PLANO": "601940241994" }, "geometry": { "type": "Point", "coordinates": [ -84.831137440740235, 9.978225717043244 ] } },
{ "type": "Feature", "properties": { "OBJECTID": 229, "Nombre_com": "RESTAURANTE CHUNG WAH", "Cantidad_l": 3.0, "Tipo": "Ambas", "Patente_co": "Comercio", "Licencia": "B1", "Número_de": 3955, "FINCA": "0009150", "IDENTIFICA": "60101000915000", "PLANO": "608537841989" }, "geometry": { "type": "Point", "coordinates": [ -84.8310749630391, 9.978426194813096 ] } },
{ "type": "Feature", "properties": { "OBJECTID": 230, "Nombre_com": "RESTAURANTE TAI WAH", "Cantidad_l": 3.0, "Tipo": "Comercial", "Patente_co": "Comercio", "Licencia": "B1", "Número_de": 3560, "FINCA": "0009150", "IDENTIFICA": "60101000915000", "PLANO": "608537841989" }, "geometry": { "type": "Point", "coordinates": [ -84.830972053617359, 9.978436008215283 ] } },
{ "type": "Feature", "properties": { "OBJECTID": 231, "Nombre_com": "FERRETERÍA TUNG FONG", "Cantidad_l": 5.0, "Tipo": "Comercial", "Patente_co": "Comercio", "Licencia": "N/A", "Número_de": 3764, "FINCA": "0003412", "IDENTIFICA": "60101000341200", "PLANO": "606525591986" }, "geometry": { "type": "Point", "coordinates": [ -84.830915655333172, 9.977950329344253 ] } },
{ "type": "Feature", "properties": { "OBJECTID": 232, "Nombre_com": "BOUTIQUE ANMA", "Cantidad_l": 5.0, "Tipo": "Comercial", "Patente_co": "Comercio", "Licencia": "N/A", "Número_de": 1216, "FINCA": "0004205", "IDENTIFICA": "60101000420500", "PLANO": "613352232009" }, "geometry": { "type": "Point", "coordinates": [ -84.830730055047979, 9.978197683376436 ] } },
{ "type": "Feature", "properties": { "OBJECTID": 233, "Nombre_com": "CENTRO DE BELLEZA Y NUTRICIÓN IRENE", "Cantidad_l": 1.0, "Tipo": "Comercial", "Patente_co": "Servicio", "Licencia": "N/A", "Número_de": 2111, "FINCA": "0010540", "IDENTIFICA": "60101001054000", "PLANO": "619416592016" }, "geometry": { "type": "Point", "coordinates": [ -84.831131149083205, 9.977397096998459 ] } },
{ "type": "Feature", "properties": { "OBJECTID": 234, "Nombre_com": "MARISQUERIA LOS CEVICHES", "Cantidad_l": 1.0, "Tipo": "Comercial", "Patente_co": "Servicio", "Licencia": "N/A", "Número_de": 5568, "FINCA": "0003016", "IDENTIFICA": "60101000301600", "PLANO": "613531472009" }, "geometry": { "type": "Point", "coordinates": [ -84.830867615348154, 9.97723205701385 ] } },
{ "type": "Feature", "properties": { "OBJECTID": 235, "Nombre_com": "BAR Y MARISQUERIA LOS CAPITANES", "Cantidad_l": 1.0, "Tipo": "Ambas", "Patente_co": "Comercio", "Licencia": "C", "Número_de": 4204, "FINCA": "0003016", "IDENTIFICA": "60101000301600", "PLANO": "613531472009" }, "geometry": { "type": "Point", "coordinates": [ -84.830864964146713, 9.977178397165346 ] } },
{ "type": "Feature", "properties": { "OBJECTID": 236, "Nombre_com": "HOTEL HOSTEL EL TURISTA", "Cantidad_l": 1.0, "Tipo": "Comercial", "Patente_co": "Servicio", "Licencia": "N/A", "Número_de": 980, "FINCA": "0003016", "IDENTIFICA": "60101000301600", "PLANO": "613531472009" }, "geometry": { "type": "Point", "coordinates": [ -84.83085322169876, 9.977085081711209 ] } },
{ "type": "Feature", "properties": { "OBJECTID": 237, "Nombre_com": "FERSOCA", "Cantidad_l": 1.0, "Tipo": "Comercial", "Patente_co": "Comercio", "Licencia": "N/A", "Número_de": 1026, "FINCA": "0004129", "IDENTIFICA": "60101000412900", "PLANO": "608654032003" }, "geometry": { "type": "Point", "coordinates": [ -84.830564937721647, 9.976996535361877 ] } },
{ "type": "Feature", "properties": { "OBJECTID": 238, "Nombre_com": "HOTEL SOL Y ARENA", "Cantidad_l": 1.0, "Tipo": "Comercial", "Patente_co": "Servicio", "Licencia": "N/A", "Número_de": 972, "FINCA": "P000314", "IDENTIFICA": "60101P00031400", "PLANO": " " }, "geometry": { "type": "Point", "coordinates": [ -84.830629863377453, 9.977172003884903 ] } },
{ "type": "Feature", "properties": { "OBJECTID": 239, "Nombre_com": "VIDRIOS MONGE", "Cantidad_l": 1.0, "Tipo": "Comercial", "Patente_co": "Comercio", "Licencia": "N/A", "Número_de": 1919, "FINCA": "0098059", "IDENTIFICA": "60101009805900", "PLANO": "603165711996" }, "geometry": { "type": "Point", "coordinates": [ -84.830610214989406, 9.977317604124153 ] } },
{ "type": "Feature", "properties": { "OBJECTID": 240, "Nombre_com": "SODA LA VERANERA", "Cantidad_l": 1.0, "Tipo": "Comercial", "Patente_co": "Servicio", "Licencia": "N/A", "Número_de": 2037, "FINCA": "0054057", "IDENTIFICA": "60101005405700", "PLANO": "606070431985" }, "geometry": { "type": "Point", "coordinates": [ -84.830013120908745, 9.977552518733773 ] } },
{ "type": "Feature", "properties": { "OBJECTID": 241, "Nombre_com": "RADIO DIFUSORA DEL PACÍFICO LIMITADA", "Cantidad_l": 1.0, "Tipo": "Comercial", "Patente_co": "Servicio", "Licencia": "N/A", "Número_de": 3876, "FINCA": "0055513", "IDENTIFICA": "60101005551300", "PLANO": "606382911986" }, "geometry": { "type": "Point", "coordinates": [ -84.829617748360363, 9.97729516963642 ] } },
{ "type": "Feature", "properties": { "OBJECTID": 242, "Nombre_com": "BAR RESTAURANTE CABO VELAS", "Cantidad_l": 1.0, "Tipo": "Ambas", "Patente_co": "Servicio", "Licencia": "C", "Número_de": 3226, "FINCA": "0009597", "IDENTIFICA": "60101000959700", "PLANO": "600127491953" }, "geometry": { "type": "Point", "coordinates": [ -84.830509588046993, 9.976442465747255 ] } },
{ "type": "Feature", "properties": { "OBJECTID": 243, "Nombre_com": "EMPRESARIOS UNIDOS PUNTARENAS", "Cantidad_l": 1.0, "Tipo": "Comercial", "Patente_co": "Servicio", "Licencia": "N/A", "Número_de": 2809, "FINCA": "0129316", "IDENTIFICA": "60101012931600", "PLANO": "607320172001" }, "geometry": { "type": "Point", "coordinates": [ -84.830477138708943, 9.976015667289289 ] } },
{ "type": "Feature", "properties": { "OBJECTID": 244, "Nombre_com": "VIDEO STAR", "Cantidad_l": 1.0, "Tipo": "Comercial", "Patente_co": "Servicio", "Licencia": "N/A", "Número_de": 855, "FINCA": "0011350", "IDENTIFICA": "60101001135000", "PLANO": "600508131958" }, "geometry": { "type": "Point", "coordinates": [ -84.831586938985993, 9.977085788578336 ] } },
{ "type": "Feature", "properties": { "OBJECTID": 245, "Nombre_com": "RESTAURANTE EL RICO", "Cantidad_l": 1.0, "Tipo": "Comercial", "Patente_co": "Servicio", "Licencia": "N/A", "Número_de": 3578, "FINCA": "0004535", "IDENTIFICA": "60101000453500", "PLANO": "614217222010" }, "geometry": { "type": "Point", "coordinates": [ -84.831579803764896, 9.977164740960063 ] } },
{ "type": "Feature", "properties": { "OBJECTID": 246, "Nombre_com": "REST. NUEVO PACIFICO", "Cantidad_l": 1.0, "Tipo": "Desocupado", "Patente_co": "Comercio", "Licencia": "C", "Número_de": 2624, "FINCA": "0046034", "IDENTIFICA": "60101004603400", "PLANO": "603131141996" }, "geometry": { "type": "Point", "coordinates": [ -84.840348219794464, 9.975803002806401 ] } },
{ "type": "Feature", "properties": { "OBJECTID": 247, "Nombre_com": "RESTAURANTE Y BAR CHIRRIPO", "Cantidad_l": 1.0, "Tipo": "Ambas", "Patente_co": "Comercio", "Licencia": "C", "Número_de": 4213, "FINCA": "0129316", "IDENTIFICA": "60101012931600", "PLANO": "607320172001" }, "geometry": { "type": "Point", "coordinates": [ -84.830239172699635, 9.976011802003086 ] } },
{ "type": "Feature", "properties": { "OBJECTID": 248, "Nombre_com": "RESPUESTOS ACON", "Cantidad_l": 1.0, "Tipo": "Comercial", "Patente_co": "Comercio", "Licencia": "N/A", "Número_de": 3300, "FINCA": "0005680", "IDENTIFICA": "60101000568000", "PLANO": "606418642000" }, "geometry": { "type": "Point", "coordinates": [ -84.829130980410355, 9.977640554268191 ] } },
{ "type": "Feature", "properties": { "OBJECTID": 249, "Nombre_com": "TAPICERIA J Y J", "Cantidad_l": 1.0, "Tipo": "Comercial", "Patente_co": "Comercio", "Licencia": "N/A", "Número_de": 0, "FINCA": "0004464", "IDENTIFICA": "60101000446400", "PLANO": " " }, "geometry": { "type": "Point", "coordinates": [ -84.828509863639283, 9.977720040847259 ] } },
{ "type": "Feature", "properties": { "OBJECTID": 250, "Nombre_com": "TALLER PUNTARENAS", "Cantidad_l": 1.0, "Tipo": "Comercial", "Patente_co": "Servicio", "Licencia": "N/A", "Número_de": 3345, "FINCA": "0004464", "IDENTIFICA": "60101000446400", "PLANO": " " }, "geometry": { "type": "Point", "coordinates": [ -84.82841557691728, 9.977724891790388 ] } },
{ "type": "Feature", "properties": { "OBJECTID": 251, "Nombre_com": "IMPRENTA PUNTARENAS", "Cantidad_l": 1.0, "Tipo": "Comercial", "Patente_co": "Comercio", "Licencia": "N/A", "Número_de": 576, "FINCA": "P000212", "IDENTIFICA": "60101P00021200", "PLANO": " " }, "geometry": { "type": "Point", "coordinates": [ -84.82625844057452, 9.978275285875782 ] } },
{ "type": "Feature", "properties": { "OBJECTID": 252, "Nombre_com": "TALLER DE MOTOS", "Cantidad_l": 1.0, "Tipo": "Comercial", "Patente_co": "Servicio", "Licencia": "N/A", "Número_de": 139, "FINCA": "0004427", "IDENTIFICA": "60101000442700", "PLANO": "613195112009" }, "geometry": { "type": "Point", "coordinates": [ -84.826804853361239, 9.978194106772662 ] } },
{ "type": "Feature", "properties": { "OBJECTID": 253, "Nombre_com": "SALA DE BELLEZA MARU", "Cantidad_l": 1.0, "Tipo": "Comercial", "Patente_co": "Servicio", "Licencia": "N/A", "Número_de": 2292, "FINCA": "0052155", "IDENTIFICA": "60101005215500", "PLANO": "605152451983" }, "geometry": { "type": "Point", "coordinates": [ -84.827050076000148, 9.978163529823064 ] } },
{ "type": "Feature", "properties": { "OBJECTID": 254, "Nombre_com": "RESTAURANTE LA FELICIDAD", "Cantidad_l": 1.0, "Tipo": "Ambas", "Patente_co": "Servicio", "Licencia": "C", "Número_de": 4149, "FINCA": "0096506", "IDENTIFICA": "60101009650600", "PLANO": "603165691996" }, "geometry": { "type": "Point", "coordinates": [ -84.830636401448714, 9.977452752442616 ] } },
{ "type": "Feature", "properties": { "OBJECTID": 255, "Nombre_com": "TIENDA GENIO STORE", "Cantidad_l": 1.0, "Tipo": "Comercial", "Patente_co": "Comercio", "Licencia": "N/A", "Número_de": 2044, "FINCA": "0004788", "IDENTIFICA": "60101000478800", "PLANO": "602720331995" }, "geometry": { "type": "Point", "coordinates": [ -84.828470217026847, 9.978045846338773 ] } },
{ "type": "Feature", "properties": { "OBJECTID": 256, "Nombre_com": "TALLER ELECTROMECANICO ACOSTA", "Cantidad_l": 1.0, "Tipo": "Comercial", "Patente_co": "Servicio", "Licencia": "N/A", "Número_de": 328, "FINCA": "0016801", "IDENTIFICA": "60101001680100", "PLANO": "603585931979" }, "geometry": { "type": "Point", "coordinates": [ -84.828015728443063, 9.97819819329203 ] } },
{ "type": "Feature", "properties": { "OBJECTID": 257, "Nombre_com": "SEICA S.A", "Cantidad_l": 1.0, "Tipo": "Comercial", "Patente_co": "Servicio", "Licencia": "N/A", "Número_de": 2810, "FINCA": "0085991", "IDENTIFICA": "60101008599100", "PLANO": "605016861983" }, "geometry": { "type": "Point", "coordinates": [ -84.82806847637903, 9.978058126581345 ] } },
{ "type": "Feature", "properties": { "OBJECTID": 258, "Nombre_com": " ", "Cantidad_l": 0.0, "Tipo": " ", "Patente_co": " ", "Licencia": " ", "Número_de": 0, "FINCA": "0008732", "IDENTIFICA": "60101000873200", "PLANO": "600504111956" }, "geometry": { "type": "Point", "coordinates": [ -84.828960962678252, 9.97792291531033 ] } },
{ "type": "Feature", "properties": { "OBJECTID": 259, "Nombre_com": "GASOLINERA DELTA", "Cantidad_l": 1.0, "Tipo": "Comercial", "Patente_co": "Servicio", "Licencia": "N/A", "Número_de": 2804, "FINCA": "0004755", "IDENTIFICA": "60101000475500", "PLANO": "615560792012" }, "geometry": { "type": "Point", "coordinates": [ -84.829394789338039, 9.977950116204966 ] } },
{ "type": "Feature", "properties": { "OBJECTID": 260, "Nombre_com": "SUPER Y LICORERA MATHI", "Cantidad_l": 1.0, "Tipo": "Ambas", "Patente_co": "Servicio", "Licencia": "A", "Número_de": 5417, "FINCA": "0005973", "IDENTIFICA": "60101000597300", "PLANO": "600520091961" }, "geometry": { "type": "Point", "coordinates": [ -84.82951556289288, 9.978282241232478 ] } },
{ "type": "Feature", "properties": { "OBJECTID": 261, "Nombre_com": "COLOR CENTER S.A", "Cantidad_l": 1.0, "Tipo": "Comercial", "Patente_co": "Servicio", "Licencia": "N/A", "Número_de": 3919, "FINCA": "0016287", "IDENTIFICA": "60101001628700", "PLANO": "609370382004" }, "geometry": { "type": "Point", "coordinates": [ -84.829579144961542, 9.97858858179768 ] } },
{ "type": "Feature", "properties": { "OBJECTID": 262, "Nombre_com": "INSTITUTO COSVIC", "Cantidad_l": 1.0, "Tipo": "Comercial", "Patente_co": "Servicio", "Licencia": "N/A", "Número_de": 3521, "FINCA": "0016001", "IDENTIFICA": "60101001600100", "PLANO": "603691841996" }, "geometry": { "type": "Point", "coordinates": [ -84.829370147913949, 9.978589276973594 ] } },
{ "type": "Feature", "properties": { "OBJECTID": 263, "Nombre_com": "CABINAS  ASDHL", "Cantidad_l": 1.0, "Tipo": "Comercial", "Patente_co": "Servicio", "Licencia": "N/A", "Número_de": 3639, "FINCA": "0009731", "IDENTIFICA": "60101000973100", "PLANO": "600125571952" }, "geometry": { "type": "Point", "coordinates": [ -84.833742904411451, 9.976565960650589 ] } },
{ "type": "Feature", "properties": { "OBJECTID": 264, "Nombre_com": "NAVIERA COMERCIAL BOLETERIA", "Cantidad_l": 1.0, "Tipo": "Comercial", "Patente_co": "Servicio", "Licencia": "N/A", "Número_de": 2867, "FINCA": "0013001", "IDENTIFICA": "60101001300100", "PLANO": "609289511990" }, "geometry": { "type": "Point", "coordinates": [ -84.848771358211593, 9.977243710428922 ] } },
{ "type": "Feature", "properties": { "OBJECTID": 265, "Nombre_com": "LUNA KIDS", "Cantidad_l": 5.0, "Tipo": "Comercial", "Patente_co": "Comercio", "Licencia": "N/A", "Número_de": 3180, "FINCA": "0003412", "IDENTIFICA": "60101000341200", "PLANO": "606525591986" }, "geometry": { "type": "Point", "coordinates": [ -84.830915521334191, 9.977838773840404 ] } },
{ "type": "Feature", "properties": { "OBJECTID": 266, "Nombre_com": "FARMACIA DON GERARDO", "Cantidad_l": 6.0, "Tipo": "Comercial", "Patente_co": "Comercio", "Licencia": "N/A", "Número_de": 3855, "FINCA": "0003412", "IDENTIFICA": "60101000341200", "PLANO": "606525591986" }, "geometry": { "type": "Point", "coordinates": [ -84.830905744804227, 9.977713789659731 ] } },
{ "type": "Feature", "properties": { "OBJECTID": 267, "Nombre_com": " ", "Cantidad_l": 1.0, "Tipo": "Comercial", "Patente_co": "Comercio", "Licencia": "N/A", "Número_de": 0, "FINCA": "0015978", "IDENTIFICA": "60101001597800", "PLANO": "600022101967" }, "geometry": { "type": "Point", "coordinates": [ -84.83111976816275, 9.977717404934367 ] } },
{ "type": "Feature", "properties": { "OBJECTID": 268, "Nombre_com": "BATIDOS CHAN", "Cantidad_l": 1.0, "Tipo": "Comercial", "Patente_co": "Comercio", "Licencia": "N/A", "Número_de": 3491, "FINCA": "0015980", "IDENTIFICA": "60101001598000", "PLANO": "608275611989" }, "geometry": { "type": "Point", "coordinates": [ -84.83119237492815, 9.977652918147726 ] } },
{ "type": "Feature", "properties": { "OBJECTID": 269, "Nombre_com": "HOTEL MACARENA", "Cantidad_l": 3.0, "Tipo": "Comercial", "Patente_co": "Servicio", "Licencia": "N/A", "Número_de": 5305, "FINCA": "0015980", "IDENTIFICA": "60101001598000", "PLANO": "608275611989" }, "geometry": { "type": "Point", "coordinates": [ -84.831204629090337, 9.977721216261159 ] } },
{ "type": "Feature", "properties": { "OBJECTID": 270, "Nombre_com": "SODA ELENA", "Cantidad_l": 3.0, "Tipo": "Comercial", "Patente_co": "Comercio", "Licencia": "N/A", "Número_de": 2636, "FINCA": "0015980", "IDENTIFICA": "60101001598000", "PLANO": "608275611989" }, "geometry": { "type": "Point", "coordinates": [ -84.831220569573588, 9.977651355126 ] } },
{ "type": "Feature", "properties": { "OBJECTID": 271, "Nombre_com": "SÚPER NACHO", "Cantidad_l": 1.0, "Tipo": "Comercial", "Patente_co": "Comercio", "Licencia": "C", "Número_de": 5516, "FINCA": "0031387", "IDENTIFICA": "60101003138700", "PLANO": "603484491979" }, "geometry": { "type": "Point", "coordinates": [ -84.831360799960919, 9.977678886071772 ] } },
{ "type": "Feature", "properties": { "OBJECTID": 272, "Nombre_com": "TIENDA JIMÉNEZ", "Cantidad_l": 1.0, "Tipo": "Comercial", "Patente_co": "Comercio", "Licencia": "N/A", "Número_de": 5446, "FINCA": "0004914", "IDENTIFICA": "60101000491400", "PLANO": "605982081985" }, "geometry": { "type": "Point", "coordinates": [ -84.831465278699625, 9.977662986957341 ] } },
{ "type": "Feature", "properties": { "OBJECTID": 273, "Nombre_com": "CENTRO DE BELLEZA UNISEX DOMINIC", "Cantidad_l": 2.0, "Tipo": "Comercial", "Patente_co": "Comercio", "Licencia": "N/A", "Número_de": 5534, "FINCA": "0007279", "IDENTIFICA": "60101000727900", "PLANO": "604650741982" }, "geometry": { "type": "Point", "coordinates": [ -84.831546165523093, 9.977643493252685 ] } },
{ "type": "Feature", "properties": { "OBJECTID": 274, "Nombre_com": " ", "Cantidad_l": 0.0, "Tipo": "Comercial", "Patente_co": "Comercio", "Licencia": "N/A", "Número_de": 0, "FINCA": "0007279", "IDENTIFICA": "60101000727900", "PLANO": "604650741982" },